     2.11           OBSERVATION DATA    GPS(GPS)            RINEX VERSION / TYPE
cnvtToRINEX 2.29.0  convertToRINEX OPR  08-Jul-16 08:29 UTC PGM / RUN BY / DATE 
----------------------------------------------------------- COMMENT             
priyomniy                                                   MARKER NAME         
                                                            MARKER NUMBER       
GNSS Observer       Trimble                                 OBSERVER / AGENCY   
0220323854          5700                2.32                REC # / TYPE / VERS 
122                 TRM41249.00                             ANT # / TYPE        
  3501239.1175  2097758.3036  4884932.6689                  APPROX POSITION XYZ 
        1.5520        0.0000        0.0000                  ANTENNA: DELTA H/E/N
     1     1     0                                          WAVELENGTH FACT L1/2
     4    C1    L1    L2    P2                              # / TYPES OF OBSERV 
  2016     7     7     7    31   45.0000000     GPS         TIME OF FIRST OBS   
  2016     7     8     8    32    0.0000000     GPS         TIME OF LAST OBS    
     0                                                      RCV CLOCK OFFS APPL 
    17                                                      LEAP SECONDS        
    31                                                      # OF SATELLITES     
   G01  1264  1264  1264  1264                              PRN / # OF OBS      
   G02  1806  1806  1806  1806                              PRN / # OF OBS      
   G03  1412  1412  1412  1412                              PRN / # OF OBS      
   G05  1728  1728  1728  1728                              PRN / # OF OBS      
   G06  2009  2009  2009  2009                              PRN / # OF OBS      
   G07  1380  1380  1380  1380                              PRN / # OF OBS      
   G08  1654  1654  1654  1654                              PRN / # OF OBS      
   G09  1442  1442  1442  1442                              PRN / # OF OBS      
   G10  1306  1306  1306  1306                              PRN / # OF OBS      
   G11  1180  1180  1180  1180                              PRN / # OF OBS      
   G12  1682  1682  1682  1682                              PRN / # OF OBS      
   G13  1454  1454  1454  1454                              PRN / # OF OBS      
   G14  1656  1656  1655  1655                              PRN / # OF OBS      
   G15  1844  1844  1844  1844                              PRN / # OF OBS      
   G16  1735  1735  1735  1735                              PRN / # OF OBS      
   G17  1986  1986  1986  1986                              PRN / # OF OBS      
   G18  1364  1364  1364  1364                              PRN / # OF OBS      
   G19  1872  1872  1872  1872                              PRN / # OF OBS      
   G20  1676  1676  1676  1676                              PRN / # OF OBS      
   G21  1452  1452  1452  1452                              PRN / # OF OBS      
   G22  1452  1452  1452  1452                              PRN / # OF OBS      
   G23  1444  1444  1444  1444                              PRN / # OF OBS      
   G24  1546  1546  1546  1546                              PRN / # OF OBS      
   G25  1462  1462  1462  1462                              PRN / # OF OBS      
   G26  1682  1682  1682  1682                              PRN / # OF OBS      
   G27  1456  1456  1456  1456                              PRN / # OF OBS      
   G28  1466  1465  1463  1463                              PRN / # OF OBS      
   G29  1436  1436  1436  1436                              PRN / # OF OBS      
   G30  1412  1412  1412  1412                              PRN / # OF OBS      
   G31  1762  1762  1762  1762                              PRN / # OF OBS      
   G32  1810  1810  1810  1810                              PRN / # OF OBS      
CARRIER PHASE MEASUREMENTS: PHASE SHIFTS REMOVED            COMMENT             
                                                            END OF HEADER       
 16  7  7  7 31 45.0000000  0  8G06G12G13G15G17G19G24G28            
  24131333.76614   -572464.78514   -413110.85956  24131336.21156
  22167396.21117   -511456.33617   -379908.87158  22167394.00858
  24018468.29715    708139.40615    523530.41856  24018467.75456
  22890379.32016    580799.41816    439531.50457  22890377.16057
  21709998.23417    304690.77317    230474.97358  21709995.80158
  20548635.26617    -58147.68817    -44135.57858  20548630.75058
  20458142.58617   -174897.23417   -132414.01259  20458142.47759
  24146274.12515    553596.55915    396182.84056  24146272.32856
 16  7  7  7 32  0.0000000  0  8G06G12G13G15G17G19G24G28            
  24122738.375 4   -617627.469 4   -448302.52346  24122741.92246
  22159740.164 7   -551689.766 7   -411259.59848  22159737.39848
  24029973.359 5    768597.625 5    570640.66846  24029972.90246
  22899158.125 6    626931.961 6    475478.91047  22899156.03947
  21714704.930 7    329425.688 7    249748.91448  21714702.35248
  20547978.516 7    -61596.965 7    -46823.32848  20547974.19148
  20455671.789 7   -187880.219 7   -142530.63749  20455671.81349
  24154633.938 6    597529.098 6    430415.94146  24154632.44546
 16  7  7  7 32 15.0000000  0  8G06G12G13G15G17G19G24G28            
  24114155.352 4   -662731.898 4   -483448.85546  24114159.55146
  22152098.109 6   -591846.922 6   -442550.87147  22152095.84047
  24041485.297 4    829094.105 4    617780.71146  24041484.50046
  22907953.641 6    673153.277 6    511495.49647  22907951.73847
  21719437.086 7    354293.910 7    269126.74248  21719434.89548
  20547356.914 7    -64864.152 7    -49369.19148  20547352.44948
  20453226.453 7   -200731.969 7   -152545.00049  20453226.10549
  24162998.922 5    641488.039 5    464669.61746  24162997.65246
 16  7  7  7 32 30.0000000  0  8G06G12G13G15G17G19G24G28            
  24105583.891 4   -707775.449 4   -518547.72346  24105587.50846
  22144471.656 7   -631925.438 7   -473780.89148  22144469.43848
  24053005.570 5    889630.754 5    664952.08646  24053004.16846
  22916766.250 6    719465.273 6    547582.73847  22916764.68847
  21724194.984 7    379297.531 7    288610.07448  21724193.15648
  20546770.023 7    -67947.039 7    -51771.44148  20546766.01648
  20450806.055 7   -213449.840 7   -162455.02749  20450805.96549
  24171369.961 6    685475.531 6    498945.52046  24171367.71546
 16  7  7  7 32 45.0000000  0  8G06G12G13G15G17G19G24G28            
  24097025.500 4   -752757.672 4   -553598.66846  24097028.41446
  22136859.531 6   -671925.656 6   -504949.87548  22136857.59848
  24064532.797 5    950207.049 5    712154.34746  24064531.78546
  22925597.203 6    765867.227 6    583740.05547  22925595.03147
  21728978.625 7    404435.859 7    308198.36748  21728976.47348
  20546218.195 7    -70845.938 7    -54030.32848  20546214.18448
  20448411.539 7   -226034.129 7   -172260.97749  20448411.63749
  24179745.820 5    729491.234 5    533243.44546  24179743.57046
 16  7  7  7 33  0.0000000  0  8G06G12G13G15G17G19G24G28            
  24088476.648 5   -797677.344 5   -588600.98846  24088480.33246
  22129263.117 7   -711846.219 7   -536056.80548  22129260.85948
  24076066.922 4   1010823.695 4    759388.00846  24076066.76646
  22934443.508 6    812359.938 6    619968.11747  22934442.52347
  21733788.055 7    429710.066 7    327892.54748  21733786.08648
  20545701.977 7    -73559.543 7    -56144.82848  20545698.01648
  20446042.586 7   -238483.605 7   -181961.87149  20446042.42249
  24188126.969 6    773536.422 6    567564.34446  24188124.78546
 16  7  7  7 33 15.0000000  0  8G06G12G13G15G17G19G24G28            
  24079940.906 5   -842533.758 5   -623553.98046  24079943.98046
  22121681.492 6   -751686.715 6   -567101.34047  22121679.26647
  24087610.133 4   1071480.859 4    806653.23046  24087609.91846
  22943308.797 6    858943.359 6    656266.85547  22943307.19147
  21738623.680 7    455120.203 7    347692.63748  21738621.48848
  20545221.438 7    -76087.563 7    -58114.72748  20545216.91848
  20443698.922 7   -250797.641 7   -191557.22349  20443699.13749
  24196514.688 6    817611.168 6    601908.26646  24196512.78546
 16  7  7  7 33 30.0000000  0  8G06G12G13G15G17G19G24G28            
  24071417.422 4   -887326.898 4   -658457.78146  24071420.00846
  22114115.516 7   -791447.090 7   -598083.44548  22114113.47348
  24099160.406 5   1132177.699 5    853949.45746  24099159.85546
  22952190.180 6    905616.828 6    692635.75847  22952189.09047
  21743485.023 7    480665.703 7    367598.20748  21743482.42248
  20544775.188 7    -78430.441 7    -59940.34448  20544770.93448
  20441381.297 7   -262976.336 7   -201047.12548  20441381.58648
  24204906.961 5    861715.199 5    636274.98446  24204905.73046
 16  7  7  7 33 45.0000000  0  8G06G12G13G15G17G19G24G28            
  24062904.188 5   -932056.746 5   -693312.05946  24062907.83246
  22106563.766 7   -831128.531 7   -629004.05148  22106561.89148
  24110718.328 5   1192913.129 5    901275.71946  24110717.45346
  22961088.617 6    952379.215 6    729073.94147  22961087.35947
  21748371.469 7    506345.547 7    387608.47748  21748369.16048
  20544364.297 7    -80588.848 7    -61622.22748  20544360.29348
  20439089.492 7   -275020.395 7   -210432.11749  20439089.60249
  24213304.930 5    905847.594 5    670663.83646  24213303.85946
 16  7  7  7 34  0.0000000  0  8G06G12G13G15G17G19G24G28            
  24054404.359 4   -976724.922 4   -728118.40646  24054407.57446
  22099028.211 7   -870732.316 7   -659864.12947  22099025.81347
  24122282.500 5   1253685.176 5    948630.50446  24122282.80546
  22970004.219 6    999228.770 6    765580.05947  22970002.79347
  21753283.305 7    532157.875 7    407721.96948  21753281.21548
  20543988.586 7    -82564.445 7    -63161.65248  20543984.65648
  20436823.125 7   -286931.168 7   -219713.24249  20436823.00849
  24221708.211 5    950006.688 5    705073.47746  24221707.27046
 16  7  7  7 34 15.0000000  0  8G06G12G13G15G17G19G24G28            
  24045916.492 5  -1021329.887 5   -762875.47346  24045919.59446
  22091507.156 6   -910257.258 6   -690662.77747  22091504.51647
  24133853.883 5   1314494.652 5    996014.43846  24133853.82846
  22978935.484 6   1046166.074 6    802154.55547  22978933.83247
  21758220.453 7    558103.531 7    427939.35248  21758218.48048
  20543647.273 7    -84356.285 7    -64557.89548  20543643.53548
  20434582.266 7   -298707.535 7   -228889.63749  20434582.34049
  24230116.883 5    994193.344 5    739504.58646  24230115.61346
 16  7  7  7 34 30.0000000  0  8G06G12G13G15G17G19G24G28            
  24037441.125 5  -1065871.965 5   -797583.51646  24037444.05546
  22084000.477 6   -949703.977 6   -721400.48047  22083997.95347
  24145434.016 5   1375340.160 5   1043426.48446  24145431.93046
  22987884.289 6   1093189.949 6    838796.51247  22987882.69547
  21763183.430 7    584181.441 7    448259.79348  21763180.78948
  20543341.594 7    -85965.148 7    -65811.55548  20543337.23448
  20432366.648 7   -310350.230 7   -237961.87149  20432366.28549
  24238529.719 5   1038406.805 5    773956.62546  24238529.16046
 16  7  7  7 34 45.0000000  0  8G06G12G13G15G17G19G24G28            
  24028976.313 5  -1110351.266 5   -832242.66846  24028980.22746
  22076508.492 6   -989072.938 6   -752077.57848  22076506.38348
  24157018.734 6   1436221.039 6   1090866.11346  24157017.22346
  22996848.781 6   1140299.590 6    875505.28947  22996846.84447
  21768170.977 7    610390.926 7    468682.75848  21768168.27348
  20543069.930 7    -87391.500 7    -66923.00848  20543065.94948
  20430176.422 7   -321859.309 7   -246929.98449  20430176.33649
  24246948.734 5   1082646.496 5    808429.04746  24246947.39146
 16  7  7  7 35  0.0000000  0  8G06G12G13G15G17G19G24G28            
  24020523.547 5  -1154768.203 5   -866853.23446  24020527.12946
  22069031.594 6  -1028364.742 6   -782694.56347  22069029.17247
  24168609.930 5   1497136.246 5   1138332.45746  24168609.28946
  23005829.539 6   1187493.906 6    912280.05947  23005828.34847
  21773182.938 7    636731.105 7    489207.56348  21773180.68048
  20542833.203 7    -88636.090 7    -67892.81649  20542828.98449
  20428011.602 7   -333235.625 7   -255794.65649  20428012.00449
  24255372.508 5   1126911.387 5    842921.12946  24255370.62546
 16  7  7  7 35 15.0000000  0  8G06G12G13G15G17G19G24G28            
  24012083.305 4  -1199122.297 4   -901414.88346  24012086.17646
  22061568.859 6  -1067579.113 6   -813251.21148  22061567.06348
  24180208.914 5   1558085.563 5   1185825.37946  24180207.58246
  23014826.109 6   1234772.660 6    949120.60547  23014824.84047
  21778220.164 7    663201.813 7    509834.08248  21778217.77048
  20542631.000 7    -89698.824 7    -68720.92648  20542626.61348
  20425872.117 7   -344478.602 7   -264555.42649  20425871.97349
  24263800.297 5   1171201.535 5    877432.87946  24263798.39146
 16  7  7  7 35 30.0000000  0  8G06G12G13G15G17G19G24G28            
  24003655.219 4  -1243414.121 4   -935927.98846  24003657.78146
  22054121.594 6  -1106716.922 6   -843748.19948  22054119.48848
  24191813.414 5   1619067.598 5   1233343.79346  24191812.30946
  23023839.133 6   1282134.457 6    986025.86747  23023837.71947
  21783282.203 7    689801.789 7    530561.32848  21783280.15248
  20542463.359 7    -90580.879 7    -69408.25448  20542458.89148
  20423757.664 7   -355589.441 7   -273213.23049  20423757.83249
  24272232.781 5   1215516.012 5    911963.59446  24272231.51646
 16  7  7  7 35 45.0000000  0  8G06G12G13G15G17G19G24G28            
  23995238.688 4  -1287643.934 4   -970392.73446  23995240.64146
  22046688.102 7  -1145778.914 7   -874186.10948  22046686.36748
  24203423.781 5   1680081.313 5   1280886.89546  24203423.25446
  23032867.367 6   1329578.336 6   1022995.09047  23032865.57047
  21788368.727 7    716530.211 7    551388.64848  21788365.76648
  20542329.383 7    -91282.859 7    -69955.25448  20542324.74248
  20421668.766 7   -366568.645 7   -281768.45349  20421668.61349
  24280669.461 5   1259854.152 5    946512.74646  24280669.09846
 16  7  7  7 36  0.0000000  0  8G06G12G13G15G17G19G24G28            
  23986833.672 5  -1331811.148 5  -1004808.69546  23986836.57846
  22039269.297 7  -1184764.738 7   -904564.66448  22039267.21948
  24215040.539 5   1741126.504 5   1328454.53546  24215040.00446
  23041911.492 6   1377104.074 6   1060028.10547  23041909.55147
  21793479.305 7    743386.992 7    572316.00048  21793476.66448
  20542230.500 7    -91804.473 7    -70361.71148  20542225.73048
  20419604.398 7   -377415.469 7   -290220.53549  20419604.81349
  24289112.820 5   1304216.016 5    981080.38346  24289110.56346
 16  7  7  7 36 15.0000000  0  8G06G12G13G15G17G19G24G28            
  23978441.281 5  -1375916.309 5  -1039176.31646  23978443.48846
  22031865.367 7  -1223675.020 7   -934884.35548  22031862.91048
  24226663.164 5   1802201.922 5   1376045.69546  24226662.34046
  23050970.242 6   1424710.469 6   1097123.97747  23050968.69947
  21798614.242 7    770370.898 7    593342.40248  21798611.72748
  20542165.258 7    -92146.684 7    -70628.37148  20542161.01248
  20417565.461 7   -388130.988 7   -298570.29749  20417565.39149
  24297558.156 5   1348600.574 5   1015665.70346  24297557.21546
 16  7  7  7 36 30.0000000  0  8G06G12G13G15G17G19G24G28            
  23970059.867 5  -1419960.375 5  -1073496.29346  23970062.08646
  22024474.961 7  -1262511.156 7   -965146.27748  22024472.55148
  24238290.156 5   1863305.770 5   1423658.98846  24238290.06646
  23060044.758 6   1472395.609 6   1134281.21547  23060042.54747
  21803773.023 7    797480.238 7    614466.55548  21803770.27748
  20542134.281 7    -92311.070 7    -70756.46948  20542129.68848
  20415550.938 7   -398716.652 7   -306818.87549  20415550.86749
  24306008.156 5   1393006.270 5   1050267.50046  24306006.82046
 16  7  7  7 36 45.0000000  0  8G06G12G13G15G17G19G24G28            
  23961689.867 4  -1463943.832 4  -1107769.12546  23961691.85546
  22017098.563 6  -1301273.746 6   -995350.88348  22017096.46948
  24249923.398 5   1924437.070 5   1471293.72746  24249923.14146
  23069133.156 6   1520158.520 6   1171499.03947  23069131.97747
  21808955.063 7    824714.117 7    635687.75048  21808952.73448
  20542136.570 7    -92298.285 7    -70746.50448  20542132.38748
  20413561.250 7   -409172.742 7   -314966.47349  20413561.42649
  24314462.852 5   1437432.172 5   1084885.03946  24314461.11346
 16  7  7  7 37  0.0000000  0  8G06G12G13G15G17G19G24G28            
  23953331.242 5  -1507866.555 5  -1141994.58246  23953333.69546
  22009736.211 6  -1339963.117 6  -1025498.44148  22009733.79348
  24261561.547 5   1985595.102 5   1518949.28546  24261561.23846
  23078236.781 6   1567998.535 6   1208776.94547  23078235.29747
  21814161.148 7    852072.000 7    657005.57448  21814158.94548
  20542172.383 7    -92108.727 7    -70598.80148  20542168.34048
  20411596.203 7   -419499.430 7   -323013.25049  20411596.27349
  24322920.336 5   1481878.023 5   1119518.15646  24322918.76646
 16  7  7  7 37 15.0000000  0  8G06G12G13G15G17G19G24G28            
  23944985.133 5  -1551728.355 5  -1176172.56346  23944987.15646
  22002387.773 6  -1378579.430 6  -1055589.05948  22002385.30948
  24273204.328 5   2046779.180 5   1566625.12546  24273203.57046
  23087355.664 6   1615914.941 6   1246114.37147  23087354.10247
  21819390.570 7    879553.313 7    678419.57448  21819388.68048
  20542241.781 7    -91742.746 7    -70313.61748  20542237.49648
  20409655.805 7   -429697.012 7   -330959.42249  20409655.60249
  24331381.469 5   1526343.250 5   1154166.32046  24331380.03146
 16  7  7  7 37 30.0000000  0  8G06G12G13G15G17G19G24G28            
  23936650.391 5  -1595529.984 5  -1210303.66047  23936651.62947
  21995053.273 7  -1417123.547 7  -1085623.42648  21995050.61348
  24284851.891 4   2107988.074 4   1614320.29746  24284851.23846
  23096487.781 6   1663906.500 6   1283510.36347  23096486.42647
  21824643.727 7    907156.867 7    699928.82048  21824641.33648
  20542344.922 7    -91201.316 7    -69891.73848  20542340.88348
  20407739.789 7   -439766.082 7   -338805.45749  20407739.81349
  24339846.516 4   1570826.977 4   1188828.90246  24339845.04346
 16  7  7  7 37 45.0000000  0  8G06G12G13G15G17G19G24G28            
  23928326.477 6  -1639271.703 6  -1244388.07847  23928328.18847
  21987732.094 7  -1455596.199 7  -1115602.10948  21987729.65248
  24296504.359 3   2169220.645 3   1662033.96545  24296503.19545
  23105633.844 6   1711972.043 6   1320963.99647  23105633.20347
  21829919.281 7    934881.664 7    721532.55148  21829916.96148
  20542481.469 7    -90485.301 7    -69333.79748  20542477.01648
  20405847.953 7   -449707.648 7   -346552.13349  20405847.74649
  24348314.719 4   1615328.395 4   1223505.30546  24348314.21146
 16  7  7  7 38  0.0000000  0  8G06G12G13G15G17G19G24G28            
  23920014.172 6  -1682953.340 6  -1278425.66847  23920016.24647
  21980424.633 7  -1493997.301 7  -1145525.03948  21980422.31348
  24308160.383 3   2230476.199 3   1709765.43045  24308160.38345
  23114794.859 6   1760111.051 6   1358474.87547  23114794.12147
  21835217.961 7    962727.258 7    743230.41448  21835215.86748
  20542650.820 7    -89594.957 7    -68640.02348  20542646.58648
  20403980.500 7   -459521.258 7   -354199.10549  20403980.23449
  24356786.227 5   1659847.137 5   1258195.16846  24356785.81646
 16  7  7  7 38 15.0000000  0  8G06G12G13G15G17G19G24G28            
  23911712.531 6  -1726575.977 6  -1312417.27347  23911715.37547
  21973130.563 6  -1532328.184 6  -1175393.24648  21973128.14548
  24319821.727 3   2291753.168 3   1757513.67245  24319820.93845
  23123969.430 6   1808321.691 6   1396041.57047  23123968.37547
  21840539.656 7    990692.051 7    765021.15248  21840537.72748
  20542853.250 7    -88531.699 7    -67811.51648  20542849.03548
  20402136.734 7   -469208.820 7   -361747.86349  20402136.56349
  24365261.297 4   1704381.777 4   1292897.45746  24365260.85546
 16  7  7  7 38 30.0000000  0  8G06G12G13G15G17G19G24G28            
  23903423.164 6  -1770138.781 6  -1346362.29347  23903425.03147
  21965849.672 7  -1570588.371 7  -1205206.37148  21965847.02748
  24331487.180 4   2353051.434 4   1805278.50445  24331486.83245
  23133157.070 6   1856604.090 6   1433664.19147  23133156.25047
  21845883.883 7   1018776.207 7    786904.89848  21845881.92248
  20543088.219 7    -87295.215 7    -66848.02048  20543084.02348
  20400317.742 7   -478769.172 7   -369197.48449  20400317.82049
  24373740.164 4   1748932.711 4   1327612.41446  24373738.56346
 16  7  7  7 38 45.0000000  0  8G06G12G13G15G17G19G24G28            
  23895144.086 5  -1813641.949 5  -1380260.82847  23895146.94947
  21958582.109 6  -1608778.445 6  -1234964.86748  21958579.94948
  24343154.789 3   2414370.285 3   1853059.45345  24343155.44545
  23142358.609 6   1904957.180 6   1471341.88747  23142357.25847
  21851251.023 7   1046978.660 7    808880.82848  21851248.53548
  20543356.477 7    -85886.180 7    -65750.07448  20543352.21148
  20398522.227 7   -488203.145 7   -376548.63749  20398522.53949
  24382220.250 5   1793499.008 5   1362339.34046  24382219.33646
 16  7  7  7 39  0.0000000  0  8G06G12G13G15G17G19G24G28            
  23886877.344 6  -1857085.910 6  -1414113.23047  23886879.84447
  21951328.383 6  -1646899.016 6  -1264669.19548  21951325.89548
  24354827.320 4   2475708.402 4   1900855.28145  24354828.22745
  23151573.211 6   1953380.008 6   1509073.92647  23151571.43847
  21856639.711 7   1075298.574 7    830948.27748  21856637.63748
  20543657.430 7    -84305.352 7    -64518.25848  20543653.44148
  20396751.117 7   -497510.938 7   -383801.46549  20396751.18449
  24390703.688 4   1838080.059 4   1397077.74646  24390703.03546
 16  7  7  7 39 15.0000000  0  7G06G12G15G17G19G24G28               
  23878621.016 5  -1900469.906 5  -1447918.91447  23878623.97747
  21944087.563 6  -1684949.625 6  -1294319.02048  21944085.16448
  23160801.023 6   2001872.512 6   1546860.27047  23160799.37947
  21862051.570 7   1103736.063 7    853107.34448  21862048.96548
  20543991.109 7    -82552.410 7    -63152.33248  20543986.70748
  20395003.836 7   -506692.520 7   -390955.94549  20395003.99649
  24399190.172 4   1882675.930 4   1431827.73446  24399189.46946
 16  7  7  7 39 30.0000000  0  7G06G12G15G17G19G24G28               
  23870376.602 5  -1943795.543 5  -1481679.12546  23870378.95346
  21936859.406 6  -1722932.113 6  -1323915.76248  21936857.57448
  23170042.078 6   2050432.250 6   1584698.98847  23170040.18047
  21867484.891 7   1132288.992 7    875356.37148  21867482.56648
  20544357.094 7    -80629.398 7    -61653.89548  20544352.87148
  20393280.453 7   -515749.703 7   -398013.49649  20393280.29349
  24407678.914 5   1927284.629 5   1466587.71946  24407677.86746
 16  7  7  7 39 45.0000000  0  7G06G12G15G17G19G24G28               
  23862142.766 5  -1987060.594 5  -1515392.12546  23862146.18846
  21929644.789 6  -1760844.512 6  -1353457.87948  21929642.60548
  23179295.914 6   2099060.688 6   1622591.25447  23179294.03147
  21872940.586 7   1160958.844 7    897696.51248  21872938.21148
  20544755.367 7    -78534.512 7    -60021.51648  20544751.13748
  20391581.141 7   -524680.430 7   -404972.50849  20391581.05949
  24416170.555 5   1971907.805 5   1501358.97346  24416169.11746
 16  7  7  7 40  0.0000000  0  7G06G12G15G17G19G24G28               
  23853922.477 5  -2030264.680 5  -1549057.62146  23853924.35246
  21922443.773 6  -1798686.914 6  -1382945.45748  21922441.16048
  23188562.250 6   2147757.492 6   1660536.78147  23188561.09847
  21878418.172 7   1189745.414 7    920127.59848  21878415.75848
  20545186.797 7    -76267.879 7    -58255.30548  20545182.34448
  20389905.492 7   -533484.328 7   -411832.69149  20389905.37949
  24424664.789 5   2016545.453 5   1536141.51246  24424663.52046
 16  7  7  7 40 15.0000000  0  7G06G12G15G17G19G24G28               
  23845712.695 5  -2073406.547 5  -1582674.66047  23845715.14847
  21915256.242 6  -1836458.223 6  -1412377.63748  21915254.04348
  23197841.992 6   2196523.211 6   1698536.01247  23197840.46547
  21883918.563 7   1218649.223 7    942650.03548  21883916.03548
  20545650.813 7    -73828.797 7    -56354.73048  20545646.46548
  20388254.609 7   -542160.668 7   -418593.47749  20388254.43449
  24433162.039 5   2061198.344 5   1570935.91846  24433160.86746
 16  7  7  7 40 30.0000000  0  7G06G12G15G17G19G24G28               
  23837514.297 5  -2116486.094 5  -1616243.12946  23837517.17646
  21908082.328 7  -1874158.520 7  -1441754.47748  21908079.79748
  23207134.977 6   2245357.277 6   1736588.49647  23207133.59047
  21889440.758 7   1247669.832 7    965263.48048  21889437.96548
  20546147.672 7    -71217.449 7    -54319.91448  20546143.54348
  20386628.133 7   -550709.273 7   -425254.73449  20386627.80549
  24441661.891 5   2105866.301 5   1605742.07046  24441660.59446
 16  7  7  7 40 45.0000000  0  7G06G12G15G17G19G24G28               
  23829328.969 4  -2159503.215 4  -1649762.92247  23829331.93047
  21900921.695 6  -1911788.078 6  -1471076.20748  21900919.37948
  23216440.336 6   2294258.871 6   1774693.61347  23216439.44547
  21894985.508 7   1276806.551 7    987967.41848  21894983.11748
  20546677.656 7    -68434.223 7    -52151.16448  20546672.82448
  20385025.273 7   -559130.711 7   -431816.89549  20385025.47749
  24450165.063 5   2150548.773 5   1640559.52346  24450163.91846
 16  7  7  7 41  0.0000000  0  7G06G12G15G17G19G24G28               
  23821154.133 4  -2202458.496 4  -1683234.55146  23821157.64146
  21893773.664 6  -1949347.797 6  -1500343.51248  21893771.80148
  23225758.906 6   2343226.805 6   1812850.40647  23225757.68047
  21900551.945 7   1306058.375 7   1010761.03548  21900549.52748
  20547239.656 7    -65480.230 7    -49849.36348  20547235.48848
  20383446.656 7   -567426.000 7   -438280.75849  20383446.76649
  24458670.266 6   2195244.746 6   1675387.50846  24458669.45346
 16  7  7  7 41 15.0000000  0  7G06G12G15G17G19G24G28               
  23812991.813 3  -2245352.398 3  -1716658.37146  23812994.51246
  21886639.430 6  -1986838.426 6  -1529556.97748  21886637.48448
  23235089.273 6   2392259.883 6   1851057.96947  23235088.36747
  21906140.063 7   1335424.211 7   1033643.48848  21906137.75848
  20547834.344 7    -62356.309 7    -47415.13748  20547830.07448
  20381892.336 7   -575595.012 7   -444646.22349  20381892.57049
  24467178.063 6   2239953.250 6   1710225.25846  24467177.12146
 16  7  7  7 41 30.0000000  0  7G06G12G15G17G19G24G28               
  23804841.016 3  -2288184.008 3  -1750033.63346  23804844.05546
  21879518.695 6  -2024259.355 6  -1558716.12548  21879516.73448
  23244432.563 6   2441358.164 6   1889316.33647  23244431.43447
  21911750.547 7   1364904.227 7   1056614.92248  21911747.46148
  20548461.164 7    -59062.098 7    -44848.22748  20548456.75448
  20380361.578 7   -583637.852 7   -450913.37149  20380362.02349
  24475688.469 6   2284674.660 6   1745073.04346  24475687.11746
 16  7  7  7 41 45.0000000  0  7G06G12G15G17G19G24G28               
  23796702.297 4  -2330954.902 4  -1783361.57846  23796705.03146
  21872410.758 6  -2061612.547 6  -1587822.49248  21872408.35548
  23253787.250 6   2490519.305 6   1927623.69947  23253785.84447
  21917380.992 7   1394496.234 7   1079673.62548  21917378.49648
  20549119.727 7    -55599.555 7    -42150.13748  20549115.84448
  20378855.039 7   -591555.980 7   -457083.34449  20378855.02049
  24484200.594 6   2329407.113 6   1779929.43846  24484198.96546
 16  7  7  7 42  0.0000000  0  7G06G12G15G17G19G24G28               
  23788574.945 3  -2373664.191 3  -1816641.54346  23788577.99646
  21865315.703 6  -2098897.113 6  -1616875.39548  21865313.16848
  23263154.859 6   2539743.613 6   1965980.27747  23263153.30547
  21923033.430 7   1424200.414 7   1102819.73448  21923031.27748
  20549811.094 7    -51968.152 7    -39320.47748  20549806.46148
  20377372.047 7   -599348.719 7   -463155.61349  20377371.81349
  24492714.992 6   2374150.980 6   1814794.72746  24492714.01646
 16  7  7  7 42 15.0000000  0  7G06G12G15G17G19G24G28               
  23780459.258 5  -2416311.273 5  -1849873.03546  23780462.86746
  21858233.570 7  -2136113.008 7  -1645874.78948  21858231.11748
  23272533.938 6   2589030.918 6   2004385.93047  23272532.50847
  21928707.438 7   1454016.797 7   1126053.27348  21928705.13748
  20550534.117 7    -48167.664 7    -36359.05548  20550530.10948
  20375913.109 7   -607015.898 7   -469130.04749  20375912.91449
  24501232.422 5   2418906.367 5   1849668.98446  24501230.49646
 16  7  7  7 42 30.0000000  0  7G06G12G15G17G19G24G28               
  23772355.922 4  -2458897.156 4  -1883056.80946  23772358.68046
  21851164.492 7  -2173261.469 7  -1674821.62948  21851162.46548
  23281924.297 6   2638379.367 6   2042839.23847  23281922.86747
  21934402.453 7   1483943.695 7   1149372.91848  21934400.01248
  20551289.148 7    -44199.871 7    -33267.27748  20551285.15248
  20374477.875 7   -614558.645 7   -475007.51649  20374477.60249
  24509750.000 5   2463671.727 5   1884551.03946  24509749.05146
 16  7  7  7 42 45.0000000  0  7G06G12G15G17G19G24G28               
  23764263.477 5  -2501420.391 5  -1916191.77346  23764266.87546
  21844108.516 7  -2210341.109 7  -1703714.84448  21844106.44148
  23291326.930 6   2687789.773 6   2081340.81347  23291326.05947
  21940118.797 7   1513982.000 7   1172779.38348  21940116.43848
  20552076.234 7    -40063.629 7    -30044.24248  20552072.09448
  20373066.375 7   -621975.820 7   -480787.13349  20373066.28949
  24518271.109 5   2508448.199 5   1919441.73446  24518270.19146
 16  7  7  7 43  0.0000000  0  7G06G12G15G17G19G24G28               
  23756183.398 5  -2543882.063 5  -1949278.75046  23756186.89546
  21837065.531 7  -2247353.223 7  -1732555.44148  21837062.90648
  23300740.594 6   2737260.301 6   2119889.25047  23300739.68847
  21945855.305 7   1544129.980 7   1196271.30148  21945853.43848
  20552895.242 7    -35760.563 7    -26691.19948  20552890.75048
  20371678.281 7   -629268.684 7   -486469.88349  20371678.46549
  24526793.992 5   2553234.215 5   1954339.88346  24526792.77346
 16  7  7  7 43 15.0000000  0  7G06G12G15G17G19G24G28               
  23748114.875 5  -2586282.102 5  -1982317.72746  23748118.63346
  21830035.195 7  -2284298.297 7  -1761343.80148  21830032.65648
  23310166.766 6   2786790.152 6   2158483.90247  23310165.10247
  21951613.258 7   1574387.082 7   1219848.26248  21951611.14848
  20553745.539 7    -31291.031 7    -23208.45748  20553741.47748
  20370314.234 7   -636437.680 7   -492056.12149  20370314.21949
  24535317.680 5   2598029.289 5   1989245.09046  24535316.97346
 16  7  7  7 43 30.0000000  0  7G06G12G15G17G19G24G28               
  23740059.422 5  -2628619.402 5  -2015307.78946  23740062.05146
  21823017.734 7  -2321175.480 7  -1790079.26648  21823015.62548
  23319603.039 6   2836379.539 6   2197124.95347  23319601.86347
  21957391.891 7   1604753.668 7   1243510.52748  21957389.99248
  20554628.156 7    -26654.422 7    -19595.52048  20554623.52048
  20368973.695 7   -643481.863 7   -497545.09849  20368973.93049
  24543844.578 5   2642833.988 5   2024157.78946  24543843.12546
 16  7  7  7 43 45.0000000  0  6G06G12G15G17G19G24                  
  23732014.234 6  -2670893.609 6  -2048248.69146  23732017.70346
  21816012.523 7  -2357984.746 7  -1818761.80148  21816010.38748
  23329051.016 6   2886028.406 6   2235812.35547  23329050.02347
  21963191.398 7   1635229.563 7   1267257.96148  21963188.87148
  20555542.211 7    -21850.750 7    -15852.40248  20555537.99248
  20367657.172 7   -650401.133 7   -502936.74249  20367657.10249
 16  7  7  7 44  0.0000000  0  6G06G12G15G17G19G24                  
  23723981.836 6  -2713105.723 6  -2081141.27346  23723985.16846
  21809021.102 7  -2394727.141 7  -1847392.23448  21809018.49648
  23338509.391 6   2935735.078 6   2274544.80147  23338508.48047
  21969011.516 7   1665813.340 7   1291089.46948  21969008.96948
  20556487.594 7    -16881.297 7    -11980.10248  20556483.53948
  20366363.898 7   -657196.570 7   -508231.89549  20366364.00449
 16  7  7  7 44 15.0000000  0  6G06G12G15G17G19G24                  
  23715960.992 6  -2755253.813 6  -2113983.91046  23715963.52746
  21802042.445 7  -2431401.305 7  -1875969.50848  21802039.72748
  23347979.781 6   2985500.410 6   2313322.94947  23347978.19147
  21974851.750 7   1696505.926 7   1315005.76648  21974849.26648
  20557465.156 7    -11744.961 7     -7977.76648  20557460.58248
  20365095.055 7   -663866.898 7   -513429.55949  20365094.68049
 16  7  7  7 44 30.0000000  0  6G06G12G15G17G19G24                  
  23707952.617 5  -2797336.926 5  -2146775.96546  23707955.02346
  21795076.758 7  -2468006.410 7  -1904492.95348  21795074.12948
  23357460.664 6   3035324.762 6   2352147.09047  23357459.94947
  21980712.852 7   1727307.680 7   1339007.11348  21980710.93448
  20558474.680 7     -6441.160 7     -3844.93448  20558470.23048
  20363849.359 7   -670410.941 7   -518528.81349  20363849.35949
 16  7  7  7 44 45.0000000  0  6G06G12G15G17G19G24                  
  23699956.820 5  -2839354.523 5  -2179516.93046  23699959.36346
  21788124.297 7  -2504542.195 7  -1932962.38748  21788122.02048
  23366953.289 6   3085208.023 6   2391017.12547  23366951.97747
  21986595.148 7   1758218.656 7   1363093.58648  21986592.96548
  20559515.523 7      -969.992 7       418.31648  20559511.02048
  20362628.242 7   -676828.590 7   -523529.58249  20362628.16449
 16  7  7  7 45  0.0000000  0  6G06G12G15G17G19G24                  
  23691973.977 6  -2881305.625 6  -2212206.07447  23691977.09447
  21781184.664 7  -2541008.063 7  -1961377.33648  21781182.37148
  23376457.586 6   3135150.363 6   2429933.20347  23376455.78147
  21992498.305 7   1789239.262 7   1387265.46948  21992496.05148
  20560588.563 7      4669.285 7      4812.56648  20560584.06348
  20361430.969 8   -683119.172 8   -528431.33649  20361431.38349
 16  7  7  7 45 15.0000000  0  6G06G12G15G17G19G24                  
  23684004.398 6  -2923189.793 6  -2244843.09046  23684006.72746
  21774259.070 7  -2577403.832 7  -1989737.66448  21774256.72748
  23385971.422 6   3185151.348 6   2468894.97747  23385971.02347
  21998422.234 7   1820369.109 7   1411522.48448  21998419.94548
  20561693.609 7     10476.641 7      9337.77048  20561689.61348
  20360258.227 7   -689282.594 7   -533234.00049  20360258.31649
 16  7  7  7 45 30.0000000  0  6G06G12G15G17G19G24                  
  23676046.109 6  -2965007.602 6  -2277428.37946  23676049.26246
  21767346.320 7  -2613730.238 7  -2018043.94948  21767343.94948
  23395496.984 6   3235209.738 6   2507901.47747  23395496.62947
  22004366.805 7   1851606.844 7   1435863.57448  22004364.76248
  20562830.375 7     16450.988 7     13993.10549  20562826.45749
  20359109.641 7   -695319.203 7   -537937.85949  20359109.31649
 16  7  7  7 45 45.0000000  0  6G06G12G15G17G19G24                  
  23668101.555 6  -3006759.293 6  -2309962.16446  23668103.85246
  21760446.453 7  -2649987.871 7  -2046296.62548  21760444.16048
  23405033.961 5   3285324.426 5   2546951.83247  23405033.09047
  22010331.477 7   1882951.656 7   1460288.09048  22010329.25848
  20563999.406 7     22591.508 7     18777.91848  20563994.71948
  20357985.016 7   -701229.934 7   -542543.62149  20357984.88749
 16  7  7  7 46  0.0000000  0  6G06G12G15G17G19G24                  
  23660168.281 5  -3048443.680 5  -2342443.50046  23660171.11346
  21753560.148 7  -2686175.816 7  -2074495.02348  21753557.89548
  23414581.781 6   3335496.160 6   2586046.66447  23414580.14847
  22016316.680 7   1914404.164 7   1484796.52348  22016314.12948
  20565199.430 7     28898.961 7     23692.80948  20565195.07448
  20356884.352 7   -707014.133 7   -547050.79349  20356883.73849
 16  7  7  7 46 15.0000000  0  6G06G12G15G17G19G24                  
  23652248.859 6  -3090061.531 6  -2374872.98446  23652251.46546
  21746687.086 7  -2722295.145 7  -2102639.94948  21746684.43048
  23424140.047 6   3385723.387 6   2625184.72347  23424138.10247
  22022321.891 7   1945962.988 7   1509387.80148  22022319.59048
  20566431.203 7     35372.020 7     28736.75048  20566426.86748
  20355807.430 7   -712672.488 7   -551459.90249  20355807.44149
 16  7  7  7 46 30.0000000  0  6G06G12G15G17G19G24                  
  23644341.992 6  -3131612.633 6  -2407250.46546  23644344.23046
  21739826.703 7  -2758346.031 7  -2130731.53548  21739824.35248
  23433708.133 6   3436005.422 6   2664365.49247  23433706.35247
  22028347.727 7   1977627.613 7   1534061.53148  22028345.16048
  20567694.336 7     42010.500 7     33909.58648  20567690.30548
  20354754.500 7   -718205.039 7   -555770.98849  20354754.87549
 16  7  7  7 46 45.0000000  0  6G06G12G15G17G19G24                  
  23636447.961 5  -3173097.363 5  -2439576.23046  23636450.28946
  21732979.602 7  -2794328.910 7  -2158770.12948  21732976.70748
  23443286.969 6   3486341.113 6   2703588.10547  23443284.69147
  22034393.102 7   2009397.133 7   1558816.98848  22034390.50048
  20568989.055 7     48813.574 7     39210.68448  20568984.72348
  20353725.391 7   -723612.301 7   -559984.43449  20353725.66849
 16  7  7  7 47  0.0000000  0  6G06G12G15G17G19G24                  
  23628566.680 6  -3214514.797 6  -2471849.54346  23628569.02346
  21726144.695 7  -2830243.262 7  -2186755.32448  21726142.41448
  23452875.930 6   3536730.621 6   2742852.61747  23452873.67647
  22040458.906 7   2041271.820 7   1583654.40248  22040456.38748
  20570314.813 7     55781.609 7     44640.32048  20570310.78948
  20352720.695 7   -728894.086 7   -564100.12149  20352720.51249
 16  7  7  7 47 15.0000000  0  6G06G12G15G17G19G24                  
  23620697.945 5  -3255865.684 5  -2504071.00047  23620700.34447
  21719323.625 7  -2866090.133 7  -2214687.94148  21719321.03548
  23462474.852 6   3587172.594 6   2782158.01647  23462472.91847
  22046544.188 7   2073250.305 7   1608572.68848  22046541.66848
  20571671.906 7     62913.449 7     50197.59448  20571667.89848
  20351738.969 7   -734051.016 7   -568118.50049  20351738.89149
 16  7  7  7 47 30.0000000  0  6G06G12G15G17G19G24                  
  23612841.727 5  -3297148.691 5  -2536239.54747  23612844.24247
  21712515.352 6  -2901868.527 6  -2242567.20748  21712512.73048
  23472083.617 6   3637667.617 6   2821504.77747  23472081.80947
  22052649.391 7   2105333.344 7   1633572.43848  22052646.81348
  20573060.703 7     70209.836 7     55883.09048  20573056.23048
  20350781.883 7   -739082.066 7   -572038.81349  20350781.66049
 16  7  7  7 47 45.0000000  0  6G06G12G15G17G19G24                  
  23604998.773 5  -3338364.246 5  -2568355.54746  23605001.45746
  21705719.734 6  -2937579.059 6  -2270393.59848  21705716.96548
  23481702.602 6   3688214.512 6   2860891.93847  23481700.48047
  22058774.031 7   2137519.609 7   1658652.63348  22058771.59848
  20574480.398 7     77669.754 7     61696.00048  20574476.16448
  20349848.086 7   -743987.867 7   -575861.51649  20349848.34849
 16  7  7  7 48  0.0000000  0  6G06G12G15G17G19G24                  
  23597169.180 5  -3379511.223 5  -2600418.11747  23597170.82847
  21698937.477 7  -2973220.863 7  -2298166.42248  21698934.67248
  23491331.172 6   3738813.590 6   2900319.76647  23491329.26247
  22064918.406 7   2169809.734 7   1683813.76248  22064916.11348
  20575930.828 7     85294.105 7     67637.05148  20575926.90648
  20348938.609 7   -748767.535 7   -579585.93849  20348938.59449
 16  7  7  7 48 15.0000000  0  6G06G12G15G17G19G24                  
  23589351.578 5  -3420589.441 5  -2632427.10547  23589353.32447
  21692167.875 7  -3008794.082 7  -2325885.80548  21692165.30548
  23500969.211 6   3789464.426 6   2939787.92647  23500967.56347
  22071083.242 7   2202203.270 7   1709055.46948  22071080.50048
  20577413.203 7     93082.582 7     73706.00048  20577408.77748
  20348053.008 7   -753421.461 7   -583212.37149  20348053.07849
 16  7  7  7 48 30.0000000  0  6G06G12G15G17G19G24                  
  23581547.766 5  -3461599.352 5  -2664382.85947  23581549.77047
  21685411.289 6  -3044299.453 6  -2353552.32448  21685408.82848
  23510617.563 6   3840165.645 6   2979295.33647  23510616.10247
  22077266.766 7   2234699.016 7   1734376.81648  22077264.54348
  20578926.422 7    101034.027 7     79901.92648  20578922.18048
  20347191.531 7   -757950.246 7   -586741.30149  20347191.29349
 16  7  7  7 48 45.0000000  0  6G06G12G15G17G19G24                  
  23573757.508 5  -3502540.559 5  -2696285.09047  23573759.32047
  21678667.969 6  -3079736.953 6  -2381165.95748  21678665.25448
  23520275.555 6   3890916.961 6   3018841.78147  23520273.83247
  22083469.789 7   2267296.879 7   1759777.74648  22083467.53948
  20580470.445 7    109148.359 7     86224.78148  20580465.98448
  20346353.320 7   -762353.797 7   -590172.64549  20346353.37549
 16  7  7  7 49  0.0000000  0  6G06G12G15G17G19G24                  
  23565979.336 5  -3543411.363 5  -2728132.43447  23565981.58647
  21671937.563 7  -3115105.066 7  -2408725.52348  21671934.84048
  23529942.680 6   3941719.340 6   3058428.00847  23529941.64847
  22089692.891 7   2299998.063 7   1785259.16848  22089690.24648
  20582045.984 7    117426.668 7     92675.40248  20582041.43448
  20345539.414 7   -766630.551 7   -593505.18449  20345539.27049
 16  7  7  7 49 15.0000000  0  6G06G12G15G17G19G24                  
  23558215.398 5  -3584212.848 5  -2759925.77747  23558217.47347
  21665220.133 6  -3150405.230 6  -2436232.13348  21665217.39148
  23539619.602 6   3992571.051 6   3098052.68847  23539618.48447
  22095934.594 7   2332800.738 7   1810819.68048  22095932.71548
  20583652.016 7    125867.586 7     99252.74248  20583647.48848
  20344749.594 7   -770781.840 7   -596739.95349  20344749.32049
 16  7  7  7 49 30.0000000  0  6G06G12G15G17G19G24                  
  23550463.969 5  -3624943.430 5  -2791663.85247  23550466.99647
  21658515.992 6  -3185635.996 6  -2463684.67248  21658513.60548
  23549306.211 6   4043472.801 6   3137716.35247  23549304.79347
  22102196.031 7   2365705.590 7   1836459.81348  22102193.86748
  20585289.328 7    134472.074 7    105957.53548  20585284.99648
  20343983.602 7   -774806.516 7   -599876.06649  20343983.15649
 16  7  7  7 49 45.0000000  0  6G06G12G15G17G19G24                  
  23542727.070 5  -3665603.949 5  -2823347.30947  23542729.16047
  21651825.086 6  -3220798.590 6  -2491084.09048  21651822.01648
  23559001.070 6   4094423.121 6   3177417.85247  23559000.44547
  22108477.156 7   2398711.254 7   1862178.50048  22108474.62548
  20586957.539 7    143238.867 7    112788.80548  20586953.27048
  20343241.719 7   -778705.734 7   -602914.42649  20343241.44149
 16  7  7  7 50  0.0000000  0  6G06G12G15G17G19G24                  
  23535002.344 5  -3706193.770 5  -2854975.68846  23535005.25846
  21645146.242 7  -3255892.617 7  -2518430.07048  21645144.26248
  23568706.102 6   4145421.895 6   3217157.12947  23568705.18047
  22114776.789 7   2431817.707 7   1887975.72348  22114774.83648
  20588656.602 7    152168.141 7    119746.68048  20588652.40248
  20342523.914 7   -782478.863 7   -605854.51649  20342523.37149
 16  7  7  7 50 15.0000000  0  6G06G12G15G17G19G24                  
  23527292.648 5  -3746711.633 5  -2886548.00047  23527294.81347
  21638481.602 6  -3290917.133 6  -2545721.89548  21638479.39548
  23578420.188 6   4196469.555 6   3256934.47347  23578419.09447
  22121096.695 7   2465025.750 7   1913852.10948  22121094.03148
  20590386.992 7    161260.590 7    126831.70748  20590383.14148
  20341829.617 7   -786125.156 7   -608695.79349  20341829.52049
 16  7  7  7 50 30.0000000  0  6G06G12G15G17G19G24                  
  23519596.172 5  -3787157.953 5  -2918064.59047  23519597.81647
  21631830.008 6  -3325872.613 6  -2572959.91848  21631827.67248
  23588143.031 6   4247564.910 6   3296749.01647  23588142.38747
  22127434.453 7   2498334.039 7   1939806.61348  22127432.17248
  20592148.164 7    170515.297 7    134043.16448  20592143.98048
  20341159.969 7   -789645.199 7   -611438.68849  20341159.69149
 16  7  7  7 50 45.0000000  0  6G06G12G15G17G19G24                  
  23511912.852 5  -3827532.352 5  -2949525.12947  23511915.09447
  21625191.016 6  -3360759.328 6  -2600144.35548  21625188.71948
  23597875.328 6   4298707.930 6   3336600.68447  23597874.56347
  22133792.211 7   2531742.625 7   1965839.26248  22133789.68848
  20593939.961 7    179932.012 7    141380.85948  20593935.57448
  20340514.383 7   -793038.680 7   -614082.96549  20340514.15249
 16  7  7  7 51  0.0000000  0  6G06G12G15G17G19G24                  
  23504244.039 5  -3867833.961 5  -2980928.92247  23504245.99647
  21618565.570 6  -3395576.625 6  -2627274.71148  21618563.30148
  23607617.023 6   4349898.449 6   3376489.36347  23607615.49647
  22140168.375 7   2565251.387 7   1991949.97348  22140166.34048
  20595762.867 7    189511.234 7    148845.18848  20595758.39148
  20339892.656 7   -796305.023 7   -616628.17249  20339892.55149
 16  7  7  7 51 15.0000000  0  6G06G12G15G17G19G24                  
  23496587.875 5  -3908062.871 5  -3012276.10546  23496590.53546
  21611953.391 7  -3430324.715 7  -2654351.12948  21611950.75448
  23617367.180 6   4401135.590 6   3416414.37547  23617365.67247
  22146564.398 7   2598859.707 7   2018138.26248  22146561.95748
  20597616.773 7    199252.375 7    156435.69148  20597612.19548
  20339295.344 7   -799445.008 7   -619074.90649  20339295.14549
 16  7  7  7 51 30.0000000  0  6G06G12G15G17G19G24                  
  23488946.305 5  -3948218.777 5  -3043566.37147  23488949.60247
  21605353.867 7  -3465003.504 7  -2681373.55548  21605351.67248
  23627126.180 6   4452419.063 6   3456375.49647  23627124.98847
  22152978.602 7   2632567.395 7   2044403.97748  22152976.52748
  20599501.039 7    209155.172 7    164152.14148  20599496.79748
  20338721.273 7   -802458.293 7   -621422.92649  20338721.32449
 16  7  7  7 51 45.0000000  0  6G06G12G15G17G19G24                  
  23481319.664 5  -3988301.391 5  -3074799.52047  23481322.14847
  21598767.977 7  -3499613.258 7  -2708342.18048  21598765.58248
  23636893.414 6   4503748.191 6   3496372.19147  23636892.45747
  22159411.688 7   2666373.969 7   2070746.74648  22159409.55148
  20601416.352 7    219219.387 7    171994.37948  20601412.47348
  20338172.477 7   -805344.992 7   -623672.30149  20338171.93049
 16  7  7  7 52  0.0000000  0  6G06G12G15G17G19G24                  
  23473705.875 5  -4028311.422 5  -3105976.13747  23473708.44947
  21592194.797 7  -3534154.758 7  -2735257.62948  21592192.39848
  23646669.586 6   4555121.746 6   3536403.50447  23646668.73447
  22165863.109 7   2700278.074 7   2097165.51248  22165861.35948
  20603361.930 7    229443.906 7    179961.53948  20603357.94548
  20337647.000 7   -808105.926 7   -625823.68049  20337646.86349
 16  7  7  7 52 15.0000000  0  6G06G12G15G17G19G24                  
  23466106.469 6  -4068245.840 6  -3137093.83647  23466108.97347
  21585635.172 7  -3568625.410 7  -2762117.86748  21585632.96148
  23656454.109 6   4606542.059 6   3576471.25047  23656453.41047
  22172334.500 7   2734282.152 7   2123662.18048  22172331.98848
  20605338.234 7    239831.102 7    188055.45348  20605334.30948
  20337146.164 7   -810738.434 7   -627874.99649  20337146.07449
 16  7  7  7 52 30.0000000  0  6G06G12G15G17G19G24                  
  23458521.281 5  -4108106.570 5  -3168154.11747  23458523.32047
  21579089.383 7  -3603027.410 7  -2788924.61348  21579086.35948
  23666247.398 6   4658006.410 6   3616573.30147  23666246.41847
  22178823.367 7   2768383.609 7   2150234.73048  22178821.53948
  20607345.383 7    250378.730 7    196274.38348  20607341.00448
  20336669.117 7   -813244.871 7   -629828.06349  20336668.79349
 16  7  7  7 52 45.0000000  0  6G06G12G15G17G19G24                  
  23450950.602 6  -4147892.285 6  -3199155.94147  23450952.66047
  21572555.836 7  -3637359.570 7  -2815676.94148  21572552.93848
  23676049.242 6   4709515.391 6   3656710.12547  23676048.94947
  22185331.453 7   2802583.125 7   2176883.68448  22185329.20748
  20609383.500 7    261087.457 7    204618.83648  20609378.91048
  20336216.305 7   -815623.895 7   -631681.84849  20336216.19949
 16  7  7  7 53  0.0000000  0  6G06G12G15G17G19G24                  
  23443393.789 5  -4187602.879 5  -3230099.22747  23443396.53547
  21566035.711 7  -3671622.090 7  -2842375.01248  21566033.55948
  23685859.961 6   4761068.203 6   3696881.12147  23685859.05147
  22191857.977 7   2836879.996 7   2203608.49648  22191855.77748
  20611451.859 7    271956.742 7    213088.41048  20611447.83648
  20335787.719 7   -817876.043 7   -633436.78549  20335787.98849
 16  7  7  7 53 15.0000000  0  6G06G12G15G17G19G24                  
  23435851.461 5  -4227237.609 5  -3260983.40647  23435853.88347
  21559529.156 7  -3705814.508 7  -2869018.44948  21559526.47348
  23695678.234 5   4812665.055 5   3737086.42247  23695677.88747
  22198403.344 7   2871274.594 7   2230409.46548  22198400.76648
  20613550.836 7    282987.031 7    221683.43449  20613546.86749
  20335383.594 7   -820000.641 7   -635092.32049  20335383.24249
 16  7  7  7 53 30.0000000  0  6G06G12G15G17G19G24                  
  23428323.672 5  -4266796.160 5  -3291808.25447  23428325.86747
  21553035.828 7  -3739936.910 7  -2895607.33248  21553033.43048
  23705504.523 6   4864305.441 6   3777325.62947  23705504.56347
  22204966.563 7   2905766.414 7   2257286.19548  22204964.62148
  20615680.188 7    294177.906 7    230403.57848  20615676.16048
  20335003.375 7   -821997.664 7   -636648.44949  20335003.26249
 16  7  7  7 53 45.0000000  0  6G06G12G15G17G19G24                  
  23420810.414 5  -4306277.977 5  -3322573.30547  23420812.84047
  21546556.375 7  -3773988.926 7  -2922141.37548  21546553.85948
  23715340.313 6   4915989.191 6   3817598.60947  23715339.50047
  22211549.109 7   2940355.512 7   2284238.71148  22211546.36348
  20617840.633 7    305529.477 7    239248.94148  20617836.15648
  20334647.563 7   -823866.816 7   -638104.94549  20334647.61749
 16  7  7  7 54  0.0000000  0  6G06G12G15G17G19G24                  
  23413311.594 5  -4345683.418 5  -3353278.81347  23413313.82047
  21540089.367 7  -3807971.148 7  -2948621.01248  21540087.07848
  23725183.891 6   4967715.203 6   3857904.55147  23725182.82047
  22218149.328 7   2975040.715 7   2311266.12948  22218146.98048
  20620031.148 7    317040.875 7    248218.86748  20620026.84848
  20334316.305 7   -825608.949 7   -639462.45749  20334316.23849
 16  7  7  7 54 15.0000000  0  6G06G12G15G17G19G24                  
  23405827.930 5  -4385011.793 5  -3383924.25447  23405829.68847
  21533636.391 7  -3841883.109 7  -2975045.91448  21533634.03948
  23735034.547 6   5019483.473 6   3898243.41447  23735033.85247
  22224767.703 7   3009822.199 7   2338368.55948  22224765.69548
  20622252.016 7    328712.355 7    257313.50848  20622247.74648
  20334008.930 7   -827223.336 7   -640720.43449  20334008.84849
 16  7  7  7 54 30.0000000  0  6G06G12G15G17G19G24                  
  23398358.414 5  -4424262.371 5  -3414509.12547  23398360.46947
  21527196.688 7  -3875724.527 7  -3001415.84848  21527193.77748
  23744894.680 6   5071293.977 6   3938615.19147  23744893.29747
  22231404.914 7   3044699.949 7   2365546.01248  22231402.83248
  20624503.602 7    340543.891 7    266532.87548  20624499.37548
  20333726.125 7   -828709.668 7   -641878.61349  20333725.96549
 16  7  7  7 54 45.0000000  0  6G06G12G15G17G19G24                  
  23390904.883 6  -4463434.984 6  -3445033.20747  23390906.91847
  21520769.961 7  -3909495.375 7  -3027730.77748  21520767.31648
  23754761.531 6   5123146.191 6   3979019.48847  23754760.71147
  22238060.375 7   3079673.578 7   2392798.16048  22238057.53548
  20626785.773 7    352535.320 7    275876.84448  20626781.41048
  20333467.883 7   -830067.770 7   -642936.89549  20333467.78149
 16  7  7  7 55  0.0000000  0  6G06G12G15G17G19G24                  
  23383465.039 6  -4502529.219 6  -3475496.21947  23383467.30147
  21514356.742 7  -3943195.699 7  -3053990.77048  21514354.67648
  23764636.125 6   5175039.652 6   4019455.91447  23764635.21147
  22244733.688 7   3114742.855 7   2420124.85948  22244731.36748
  20629097.758 7    364686.449 7    285345.25048  20629093.64148
  20333233.633 7   -831297.766 7   -643895.32849  20333233.80949
 16  7  7  7 55 15.0000000  0  6G06G12G15G17G19G24                  
  23376040.680 6  -4541544.480 6  -3505897.69547  23376043.38747
  21507957.438 7  -3976825.082 7  -3080195.47748  21507954.76248
  23774519.195 6   5226974.328 6   4059924.45347  23774517.92247
  22251425.406 7   3149907.621 7   2447525.95748  22251422.93848
  20631440.430 7    376997.414 7    294938.21948  20631436.35948
  20333024.078 7   -832399.441 7   -644753.78949  20333024.32449
 16  7  7  7 55 30.0000000  0  6G06G12G15G17G19G24                  
  23368631.250 6  -4580480.879 6  -3536237.71947  23368633.63747
  21501571.695 7  -4010383.938 7  -3106345.23048  21501568.77748
  23784409.445 6   5278949.457 6   4100424.50447  23784408.66847
  22258135.117 7   3185167.234 7   2475000.96548  22258132.80548
  20633813.648 7    389467.520 7    304655.19148  20633809.25048
  20332838.727 7   -833373.168 7   -645512.54349  20332838.84049
 16  7  7  7 55 45.0000000  0  6G06G12G15G17G19G24                  
  23361237.055 6  -4619338.098 6  -3566516.05547  23361239.53547
  21495198.953 7  -4043872.059 7  -3132439.86348  21495196.23848
  23794308.102 6   5330964.555 6   4140955.71547  23794306.75847
  22264862.531 7   3220521.301 7   2502549.56348  22264860.38748
  20636216.508 7    402096.602 7    314496.02348  20636212.25448
  20332677.906 7   -834218.914 7   -646171.56649  20332677.85549
 16  7  7  7 56  0.0000000  0  6G06G12G15G17G19G24                  
  23353857.484 6  -4658114.824 6  -3596731.68447  23353859.85547
  21488839.852 7  -4077288.391 7  -3158478.55948  21488836.96548
  23804213.539 6   5383020.262 6   4181518.57047  23804212.56647
  22271608.617 7   3255970.441 7   2530172.25848  22271606.51248
  20638650.211 6    414885.426 6    324461.33248  20638646.23448
  20332541.570 7   -834935.566 7   -646730.00449  20332541.45749
 16  7  7  7 56 15.0000000  0  6G06G12G15G17G19G24                  
  23346493.703 6  -4696811.352 6  -3626884.80947  23346496.47747
  21482494.492 7  -4110633.816 7  -3184462.00448  21482492.13348
  23814127.031 6   5435115.430 6   4222112.16047  23814125.71147
  22278372.352 7   3291514.039 7   2557868.54348  22278370.53548
  20641114.078 7    427833.129 7    334550.45748  20641110.02748
  20332429.258 7   -835523.789 7   -647188.37949  20332429.38749
 16  7  7  7 56 30.0000000  0  6G06G12G15G17G19G24                  
  23339145.563 6  -4735428.250 6  -3656975.87547  23339147.81347
  21476162.938 7  -4143909.008 7  -3210390.72748  21476160.02348
  23824047.711 6   5487248.813 6   4262735.52747  23824045.79347
  22285153.984 7   3327150.715 7   2585637.36348  22285151.35948
  20643607.977 7    440938.668 7    344762.55948  20643603.54748
  20332342.328 7   -835984.277 7   -647547.19949  20332341.77049
 16  7  7  7 56 45.0000000  0  6G06G12G15G17G19G24                  
  23331812.211 6  -4773964.066 6  -3687003.76647  23331814.60947
  21469844.320 7  -4177112.953 7  -3236263.92248  21469841.12948
  23833975.867 6   5539421.008 6   4303389.14547  23833974.14147
  22291953.086 7   3362880.922 7   2613479.05948  22291951.27748
  20646132.008 7    454202.777 7    355098.22348  20646128.12148
  20332278.766 7   -836316.238 7   -647805.87949  20332278.58649
 16  7  7  7 57  0.0000000  0  6G06G12G15G17G19G24                  
  23324494.773 6  -4812418.449 6  -3716968.19947  23324496.85547
  21463539.094 7  -4210245.387 7  -3262081.39848  21463536.66848
  23843910.867 6   5591631.820 6   4344072.84446  23843909.40246
  22298769.867 7   3398704.637 7   2641393.61748  22298767.74648
  20648686.477 7    467625.398 7    365557.40648  20648681.84848
  20332240.016 7   -836519.289 7   -647964.10249  20332239.94549
 16  7  7  7 57 15.0000000  0  6G06G12G15G17G19G24                  
  23317192.781 6  -4850790.918 6  -3746868.79747  23317194.37947
  21457247.922 7  -4243306.129 7  -3287843.00848  21457245.43048
  23853853.844 6   5643880.844 6   4384786.34046  23853852.19146
  22305604.625 7   3434621.621 7   2669380.86348  22305603.16448
  20651270.781 7    481206.410 7    376140.01248  20651266.59848
  20332225.750 7   -836593.254 7   -648021.74649  20332225.61749
 16  7  7  7 57 30.0000000  0  6G06G12G15G17G19G24                  
  23309906.828 6  -4889080.586 6  -3776704.88347  23309908.17647
  21450970.656 7  -4276294.586 7  -3313548.29348  21450967.98048
  23863803.922 6   5696168.344 6   4425529.80547  23863802.16847
  22312457.641 7   3470632.164 7   2697441.01648  22312455.10548
  20653885.273 7    494946.270 7    386846.39848  20653880.98848
  20332236.648 7   -836537.660 7   -647978.42649  20332236.50449
 16  7  7  7 57 45.0000000  0  6G06G12G15G17G19G24                  
  23302635.789 6  -4927288.176 6  -3806477.00847  23302637.37547
  21444706.266 7  -4309211.613 7  -3339197.91048  21444704.09448
  23873760.891 6   5748492.820 6   4466302.09847  23873759.65647
  22319327.523 7   3506734.875 7   2725572.98448  22319325.23048
  20656529.922 7    508843.707 7    397675.56648  20656525.96148
  20332271.781 7   -836353.355 7   -647834.81649  20332271.77049
 16  7  7  7 58  0.0000000  0  6G06G12G15G17G19G24                  
  23295380.961 6  -4965413.152 6  -3836184.75847  23295382.71547
  21438456.313 7  -4342057.066 7  -3364791.76648  21438453.73848
  23883725.094 6   5800854.168 6   4507103.10947  23883723.84047
  22326215.188 7   3542929.660 7   2753776.69948  22326212.71948
  20659204.500 7    522898.633 7    408627.45748  20659200.51648
  20332331.633 7   -836039.859 7   -647590.54349  20332331.73049
 16  7  7  7 58 15.0000000  0  6G06G12G15G17G19G24                  
  23288141.813 6  -5003455.348 6  -3865828.00447  23288143.78947
  21432219.633 7  -4374831.137 7  -3390329.99648  21432217.34048
  23893696.313 6   5853251.781 6   4547932.37947  23893695.10947
  22333120.445 7   3579216.148 7   2782051.87548  22333117.92648
  20661909.133 7    537110.672 7    419701.77048  20661904.60548
  20332415.930 7   -835597.855 7   -647246.13349  20332415.63749
 16  7  7  7 58 30.0000000  0  6G06G12G15G17G19G24                  
  23280918.375 6  -5041414.242 6  -3895406.32847  23280920.35247
  21425996.477 7  -4407533.621 7  -3415812.43848  21425993.70348
  23903674.008 6   5905685.488 6   4588789.76646  23903672.05946
  22340042.453 7   3615594.164 7   2810398.36348  22340040.06648
  20664643.539 7    551479.770 7    430898.46148  20664639.15648
  20332524.070 7   -835026.754 7   -646801.12149  20332524.05549
 16  7  7  7 58 45.0000000  0  6G06G12G15G17G19G24                  
  23273711.539 6  -5079288.813 6  -3924918.95347  23273712.65247
  21419786.859 7  -4440163.637 7  -3441238.41048  21419784.67248
  23913658.969 6   5958155.480 6   4629675.44146  23913657.77346
  22346982.992 7   3652064.039 7   2838816.42248  22346980.70348
  20667407.594 7    566006.430 7    442217.94148  20667403.11348
  20332657.578 7   -834326.016 7   -646255.08249  20332657.44149
 16  7  7  7 59  0.0000000  0  6G06G12G15G17G19G24                  
  23266520.008 6  -5117078.652 6  -3954365.58247  23266521.78147
  21413591.359 7  -4472721.035 7  -3466607.80148  21413588.59448
  23923650.367 6   6010661.484 6   4670589.16447  23923649.07847
  22353940.445 7   3688625.531 7   2867305.87148  22353938.28148
  20670202.203 7    580690.641 7    453660.18048  20670197.71148
  20332815.500 7   -833495.426 7   -645607.88349  20332815.43049
 16  7  7  7 59 15.0000000  0  7G06G12G15G17G19G24G32               
  23259344.734 6  -5154784.391 6  -3983746.62947  23259346.24247
  21407409.695 7  -4505206.789 7  -3491921.36748  21407407.14148
  23933648.383 6   6063202.121 6   4711529.89147  23933647.64547
  22360915.078 7   3725277.387 7   2895865.73448  22360912.79748
