     2.11           OBSERVATION DATA    M (MIXED)           RINEX VERSION / TYPE
teqc  2013Mar15                         20170506 11:52:45UTCPGM / RUN BY / DATE
Marker                                                      MARKER NAME
0000                                                        MARKER NUMBER
UNKNOWN             UNKNOWN                                 OBSERVER / AGENCY
0000                UNKNOWN             UNKNOWN             REC # / TYPE / VERS
0000                UNKNOWN                                 ANT # / TYPE
  3850898.3333  2231889.1912  4553102.5291                  APPROX POSITION XYZ
        0.0000        0.0000        0.0000                  ANTENNA: DELTA H/E/N
     1     1                                                WAVELENGTH FACT L1/2
     5    L1    C1    P1    D1    S1                        # / TYPES OF OBSERV
     1.0000                                                 INTERVAL
    18                                                      LEAP SECONDS
  2017     4    10    16    13   21.0000000     GPS         TIME OF FIRST OBS
                                                            END OF HEADER
 17  4 10 16 13 21.0000000  0  9G31G02G05G06G14G29G12G24G25
   -402567.709 9  22571813.543                        2505.549          50.000
    126393.642 9  22119939.341                        -833.948          48.000
   -564582.278 9  24076019.203                        3518.611          47.000
    405225.292 8  25057423.041                       -2564.388          39.000
    168240.358 9  25123682.745                       -1129.946          41.000
   -378285.186 9  20748239.205                        2365.536          54.000
    232073.056 9  21705597.180                       -1491.524          49.000
    443189.081 9  25267305.338                       -2803.403          42.000
   -163035.484 9  20357594.755                         988.218          54.000
 17  4 10 16 13 22.0000000  0  9G31G02G05G06G14G29G12G24G25
   -405072.662 9  22571336.869                        2504.533          50.000
    127228.090 9  22120098.134                        -834.755          48.000
   -568100.488 9  24075349.713                        3518.030          46.000
    407790.054 8  25057911.142                       -2564.866          39.000
    169370.740 9  25123897.870                       -1130.566          41.000
   -380650.219 9  20747789.147                        2364.737          53.000
    233564.989 9  21705881.074                       -1492.182          49.000
    445992.764 9  25267838.872                       -2803.652          42.000
   -164023.178 9  20357406.800                         987.387          54.000
 17  4 10 16 13 23.0000000  0  9G31G02G05G06G14G29G12G24G25
   -407576.894 9  22570860.329                        2504.031          50.000
    128063.132 9  22120257.043                        -835.249          48.000
   -571618.241 9  24074680.313                        3517.650          46.000
    410355.097 8  25058399.279                       -2565.060          39.000
    170501.602 9  25124113.093                       -1130.982          41.000
   -383014.720 9  20747339.196                        2364.361          53.000
    235057.435 9  21706165.067                       -1492.656          49.000
    448796.575 9  25268372.432                       -2803.794          42.000
   -165010.212 9  20357218.978                         986.793          54.000
 17  4 10 16 13 24.0000000  0  9G31G02G05G06G14G29G12G24G25
   -410080.541 9  22570383.914                        2503.428          50.000
    128898.620 9  22120416.042                        -835.621          48.000
   -575135.693 9  24074010.975                        3517.389          46.000
    412920.319 8  25058887.443                       -2565.290          39.000
    171632.781 9  25124328.379                       -1131.236          41.000
   -385378.833 9  20746889.316                        2364.010          53.000
    236550.222 9  21706449.131                       -1492.917          49.000
    451600.317 9  25268905.983                       -2803.644          42.000
   -165996.758 9  20357031.247                         986.347          54.000
 17  4 10 16 13 25.0000000  0  9G31G02G05G06G14G29G12G24G25
   -412583.717 9  22569907.571                        2503.309          50.000
    129734.455 9  22120575.103                        -835.654          48.000
   -578652.934 9  24073341.673                        3517.466          46.000
    415485.596 8  25059375.633                       -2565.049          39.000
    172764.169 9  25124543.692                       -1131.112          41.000
   -387742.663 9  20746439.490                        2364.029          53.000
    238043.273 9  21706733.239                       -1492.783          49.000
    454403.917 9  25269439.498                       -2803.160          41.000
   -166982.885 9  20356843.604                         986.288          54.000
 17  4 10 16 13 26.0000000  0 10G21G31G02G05G06G14G29G12G24G25
    -30432.482 7  25254831.813                        4389.424          37.000
   -415086.531 9  22569431.308                        2502.810          50.000
    130570.518 9  22120734.208                        -835.957          48.000
   -582170.083 9  24072672.380                        3517.354          46.000
    418050.828 8  25059863.806                       -2564.972          39.000
    173895.656 9  25124759.032                       -1131.405          41.000
   -390106.320 9  20745989.700                        2363.791          53.000
    239536.467 9  21707017.384                       -1492.998          49.000
    457207.264 9  25269972.960                       -2802.990          41.000
   -167968.730 9  20356656.015                         985.891          54.000
 17  4 10 16 13 27.0000000  0 10G21G31G02G05G06G14G29G12G24G25
    -34821.648 7  25253995.561                        4389.441          37.000
   -417589.015 9  22568955.107                        2502.518          50.000
    131406.772 9  22120893.350                        -836.112          48.000
   -585687.172 9  24072003.104                        3517.199          46.000
    420615.970 8  25060351.970                       -2564.870          39.000
    175027.194 9  25124974.380                       -1131.294          41.000
   -392469.849 9  20745539.928                        2363.689          54.000
    241029.753 9  21707301.555                       -1493.169          49.000
    460010.301 9  25270506.368                       -2802.676          41.000
   -168954.328 9  20356468.471                         985.726          54.000
 17  4 10 16 13 28.0000000  0 10G21G31G02G05G06G14G29G12G24G25
    -39210.414 7  25253160.354                        4388.674          37.000
   -420090.582 9  22568479.076                        2501.247          50.000
    132243.816 9  22121052.643                        -837.250          48.000
   -589203.622 9  24071333.954                        3516.255          46.000
    423181.617 8  25060840.223                       -2565.705          39.000
    176159.396 9  25125189.854                       -1132.383          41.000
   -394832.660 9  20745090.299                        2362.630          54.000
    242523.715 9  21707585.842                       -1494.181          49.000
    462813.637 9  25271039.830                       -2803.317          42.000
   -169939.078 9  20356281.087                         984.504          54.000
 17  4 10 16 13 29.0000000  0 10G21G31G02G05G06G14G29G12G24G25
    -43599.108 7  25252325.290                        4388.843          37.000
   -422591.594 9  22568003.153                        2500.923          50.000
    133081.274 9  22121212.017                        -837.515          48.000
   -592719.782 9  24070664.849                        3516.103          46.000
    425747.425 8  25061328.503                       -2565.799          39.000
    177291.887 9  25125405.390                       -1132.380          41.000
   -397195.099 9  20744640.741                        2362.426          53.000
    244018.010 9  21707870.201                       -1494.361          49.000
    465616.916 9  25271573.283                       -2803.105          41.000
   -170923.353 9  20356093.793                         984.208          54.000
 17  4 10 16 13 30.0000000  0 10G21G31G02G05G06G14G29G12G24G25
    -47987.741 7  25251490.377                        4388.768          37.000
   -425092.008 9  22567527.354                        2500.212          50.000
    133919.179 9  22121371.471                        -838.027          48.000
   -596235.646 9  24069995.806                        3515.874          46.000
    428313.378 9  25061816.819                       -2565.904          40.000
    178424.709 9  25125620.980                       -1132.874          41.000
   -399557.153 9  20744191.264                        2361.988          53.000
    245512.652 9  21708154.622                       -1494.694          49.000
    468420.145 9  25272106.718                       -2803.051          41.000
   -171907.116 9  20355906.597                         983.609          54.000
 17  4 10 16 13 31.0000000  0 10G21G31G02G05G06G14G29G12G24G25
    -52376.493 7  25250655.465                        4388.639          37.000
   -427592.062 9  22567051.618                        2499.765          50.000
    134757.321 9  22121530.979                        -838.403          48.000
   -599751.395 9  24069326.789                        3515.521          46.000
    430879.311 9  25062305.126                       -2566.026          40.000
    179557.632 9  25125836.587                       -1133.137          41.000
   -401919.020 9  20743741.813                        2361.614          53.000
    247007.445 9  21708439.070                       -1495.081          49.000
    471223.132 9  25272640.108                       -2803.109          42.000
   -172890.580 9  20355719.455                         983.127          54.000
 17  4 10 16 13 32.0000000  0 10G21G31G02G05G06G14G29G12G24G25
    -56765.094 7  25249820.419                        4388.886          37.000
   -430091.454 9  22566575.999                        2499.449          50.000
    135595.997 9  22121690.585                        -838.604          48.000
   -603266.767 9  24068657.836                        3515.601          46.000
    433445.482 9  25062793.495                       -2565.892          40.000
    180690.945 9  25126052.275                       -1133.076          41.000
   -404280.428 9  20743292.452                        2361.512          53.000
    248502.653 9  21708723.607                       -1495.062          49.000
    474026.163 9  25273173.508                       -2802.695          42.000
   -173873.463 9  20355532.429                         982.945          54.000
 17  4 10 16 13 33.0000000  0 10G21G31G02G05G06G14G29G12G24G25
    -61153.822 7  25248985.355                        4389.033          37.000
   -432590.471 9  22566100.459                        2499.086          50.000
    136434.901 9  22121850.236                        -838.808          49.000
   -606782.030 9  24067988.918                        3515.494          46.000
    436011.613 9  25063281.882                       -2565.838          40.000
    181824.367 9  25126267.981                       -1133.194          41.000
   -406641.662 9  20742843.126                        2361.417          54.000
    249998.004 9  21709008.162                       -1495.163          49.000
    476828.933 9  25273706.862                       -2802.403          42.000
   -174856.053 9  20355345.447                         982.720          54.000
 17  4 10 16 13 34.0000000  0 10G21G31G02G05G06G14G29G12G24G25
    -65542.703 7  25248150.291                        4388.799          37.000
   -435089.144 9  22565624.991                        2498.419          50.000
    137274.022 9  22122009.932                        -839.344          49.000
   -610297.218 9  24067320.000                        3515.038          46.000
    438577.682 9  25063770.234                       -2566.158          40.000
    182957.876 9  25126483.705                       -1133.607          41.000
   -409002.734 9  20742393.827                        2360.886          54.000
    251493.469 9  21709292.753                       -1495.619          49.000
    479631.454 9  25274240.163                       -2802.524          42.000
   -175838.360 9  20355158.519                         982.042          53.000
 17  4 10 16 13 35.0000000  0 10G21G31G02G05G06G14G29G12G24G25
    -69931.691 7  25247315.227                        4389.190          37.000
   -437587.420 9  22565149.595                        2498.180          50.000
    138113.395 9  22122169.672                        -839.386          48.000
   -613812.293 9  24066651.109                        3515.097          46.000
    441143.737 9  25064258.585                       -2565.999          40.000
    184091.515 9  25126699.447                       -1133.538          41.000
   -411363.609 9  20741944.573                        2360.888          54.000
    252989.094 9  21709577.362                       -1495.551          49.000
    482433.741 9  25274773.428                       -2802.097          42.000
   -176820.355 9  20354971.654                         981.890          53.000
 17  4 10 16 13 36.0000000  0 10G21G31G02G05G06G14G29G12G24G25
    -74320.588 7  25246480.145                        4388.850          37.000
   -440085.115 9  22564674.306                        2497.357          50.000
    138953.215 9  22122329.492                        -840.001          48.000
   -617327.042 9  24065982.280                        3514.600          46.000
    443709.955 8  25064746.954                       -2566.287          39.000
    185225.464 9  25126915.242                       -1134.084          41.000
   -413724.094 9  20741495.382                        2360.312          53.000
    254485.076 9  21709862.043                       -1496.179          49.000
    485236.005 9  25275306.685                       -2802.298          42.000
   -177801.849 9  20354784.878                         981.275          54.000
 17  4 10 16 13 37.0000000  0 10G21G31G02G05G06G14G29G12G24G25
    -78709.380 7  25245645.215                        4388.808          37.000
   -442582.192 9  22564199.133                        2496.902          50.000
    139793.530 9  22122489.411                        -840.395          48.000
   -620841.449 9  24065313.514                        3514.358          46.000
    446276.378 9  25065235.368                       -2566.342          40.000
    186359.762 9  25127131.091                       -1134.302          40.000
   -416084.148 9  20741046.289                        2360.034          54.000
    255981.444 9  21710146.794                       -1496.410          49.000
    488038.256 9  25275839.941                       -2802.137          42.000
   -178782.792 9  20354598.209                         980.814          54.000
 17  4 10 16 13 38.0000000  0 10G21G31G02G05G06G14G29G12G24G25
    -83098.052 7  25244810.410                        4388.804          37.000
   -445078.648 9  22563724.076                        2496.298          50.000
    140634.335 9  22122649.428                        -840.906          49.000
   -624355.490 9  24064644.820                        3514.001          46.000
    448843.034 9  25065723.818                       -2566.660          40.000
    187494.423 9  25127347.002                       -1134.638          40.000
   -418443.769 9  20740597.276                        2359.546          54.000
    257478.199 9  21710431.618                       -1496.804          49.000
    490840.517 9  25276373.197                       -2802.145          42.000
   -179763.183 9  20354411.648                         980.258          54.000
 17  4 10 16 13 39.0000000  0 10G21G31G02G05G06G14G29G12G24G25
    -87486.571 7  25243975.712                        4388.719          37.000
   -447574.445 9  22563249.153                        2495.574          50.000
    141475.650 9  22122809.535                        -841.481          48.000
   -627869.163 9  24063976.196                        3513.611          46.000
    451409.903 9  25066212.304                       -2566.904          40.000
    188629.476 9  25127562.985                       -1135.151          40.000
   -420802.932 9  20740148.352                        2359.059          53.000
    258975.383 9  21710716.521                       -1497.273          49.000
    493642.793 9  25276906.454                       -2802.294          42.000
   -180742.995 9  20354225.193                         979.637          54.000
 17  4 10 16 13 40.0000000  0 10G21G31G02G05G06G14G29G12G24G25
    -91874.987 7  25243140.925                        4388.407          37.000
   -450069.637 9  22562774.346                        2494.902          50.000
    142317.434 9  22122969.730                        -841.998          48.000
   -631382.492 9  24063307.636                        3513.207          47.000
    453976.975 9  25066700.825                       -2567.165          40.000
    189764.864 9  25127779.031                       -1135.499          40.000
   -423161.681 9  20739699.500                        2358.556          54.000
    260472.942 9  21711001.497                       -1497.739          49.000
    496445.044 9  25277439.710                       -2802.280          42.000
   -181722.278 9  20354038.837                         979.036          54.000
 17  4 10 16 13 41.0000000  0 10G21G31G02G05G06G14G29G12G24G25
    -96263.320 7  25242306.120                        4388.398          37.000
   -452564.248 9  22562299.647                        2494.384          50.000
    143159.670 9  22123130.007                        -842.414          48.000
   -634895.504 9  24062639.147                        3512.914          46.000
    456544.215 9  25067189.382                       -2567.336          40.000
    190900.558 9  25127995.121                       -1135.704          40.000
   -425520.047 9  20739250.720                        2358.209          54.000
    261970.845 9  21711286.534                       -1498.016          49.000
    499247.258 9  25277972.957                       -2802.198          42.000
   -182701.063 9  20353852.580                         978.615          54.000
 17  4 10 16 13 42.0000000  0 10G21G31G02G05G06G14G29G12G24G25
   -100651.589 7  25241471.288                        4388.120          37.000
   -455058.310 9  22561825.054                        2493.879          50.000
    144002.315 9  22123290.363                        -842.776          48.000
   -638408.241 9  24061970.711                        3512.672          46.000
    459111.560 9  25067677.966                       -2567.166          40.000
    192036.542 9  25128211.273                       -1136.048          40.000
   -427878.058 9  20738802.011                        2357.921          54.000
    263469.058 9  21711571.626                       -1498.311          49.000
    502049.399 9  25278506.187                       -2802.089          42.000
   -183679.370 9  20353666.411                         978.169          54.000
 17  4 10 16 13 43.0000000  0 10G21G31G02G05G06G14G29G12G24G25
   -105039.988 7  25240636.518                        4388.597          37.000
   -457551.955 9  22561350.533                        2493.515          50.000
    144845.241 9  22123450.773                        -843.060          48.000
   -641920.826 9  24061302.303                        3512.471          46.000
    461678.959 9  25068166.567                       -2567.359          40.000
    193172.670 9  25128427.444                       -1136.097          40.000
   -430235.847 9  20738353.338                        2357.742          54.000
    264967.462 9  21711856.762                       -1498.478          49.000
    504851.328 9  25279039.381                       -2801.831          41.000
   -184657.337 9  20353480.314                         977.804          54.000
 17  4 10 16 13 44.0000000  0 10G21G31G02G05G06G14G29G12G24G25
   -109428.218 7  25239801.946                        4388.509          37.000
   -460044.951 9  22560876.138                        2492.790          49.000
    145688.674 9  22123611.282                        -843.565          48.000
   -645433.038 9  24060633.965                        3512.079          46.000
    464246.549 9  25068655.205                       -2567.452          40.000
    194309.182 9  25128643.695                       -1136.539          40.000
   -432593.182 9  20737904.763                        2357.222          54.000
    266466.271 9  21712141.969                       -1498.915          48.000
    507653.276 9  25279572.583                       -2801.860          41.000
   -185634.735 9  20353294.325                         977.226          54.000
 17  4 10 16 13 45.0000000  0 10G21G31G02G05G06G14G29G12G24G25
   -113816.263 7  25238967.328                        4388.270          37.000
   -462537.278 9  22560401.876                        2492.140          49.000
    146532.650 9  22123771.880                        -844.113          48.000
   -648944.836 9  24059965.709                        3511.729          46.000
    466814.408 9  25069143.896                       -2567.773          40.000
    195446.097 9  25128860.035                       -1136.910          40.000
   -434950.035 9  20737456.268                        2356.714          53.000
    267965.512 9  21712427.257                       -1499.274          49.000
    510455.268 9  25280105.795                       -2801.937          41.000
   -186611.525 9  20353108.451                         976.610          53.000
 17  4 10 16 13 46.0000000  0 10G21G31G02G05G06G14G29G12G24G25
   -118204.217 7  25238132.586                        4388.096          37.000
   -465029.000 9  22559927.721                        2491.592          50.000
    147377.101 9  22123932.576                        -844.526          48.000
   -652456.316 9  24059297.514                        3511.522          47.000
    469382.500 9  25069632.631                       -2567.999          40.000
    196583.358 9  25129076.429                       -1137.231          40.000
   -437306.484 9  20737007.854                        2356.420          54.000
    269465.142 9  21712712.625                       -1499.667          49.000
    513257.223 9  25280638.998                       -2801.793          42.000
   -187587.788 9  20352922.676                         976.156          54.000
 17  4 10 16 13 47.0000000  0 10G21G31G02G05G06G14G29G12G24G25
   -122591.915 7  25237297.790                        4387.632          37.000
   -467519.975 9  22559453.710                        2490.790          49.000
    148222.159 9  22124093.397                        -845.226          48.000
   -655967.305 9  24058629.418                        3510.837          47.000
    471950.865 9  25070121.412                       -2568.338          40.000
    197721.087 9  25129292.912                       -1137.739          40.000
   -439662.378 9  20736559.538                        2355.779          53.000
    270965.272 9  21712998.092                       -1500.236          49.000
    516059.328 9  25281172.236                       -2802.084          42.000
   -188563.384 9  20352737.025                         975.396          54.000
 17  4 10 16 13 48.0000000  0 10G21G31G02G05G06G14G29G12G24G25
   -126979.618 7  25236462.913                        4387.875          37.000
   -470010.435 9  22558979.796                        2490.326          50.000
    149067.602 9  22124254.281                        -845.537          48.000
   -659478.064 9  24057961.358                        3510.827          47.000
    474519.385 9  25070610.219                       -2568.517          40.000
    198859.082 9  25129509.449                       -1137.996          40.000
   -442017.951 9  20736111.293                        2355.485          54.000
    272465.691 9  21713283.603                       -1500.496          49.000
    518861.314 9  25281705.439                       -2801.821          42.000
   -189538.538 9  20352551.465                         975.047          54.000
 17  4 10 16 13 49.0000000  0 10G21G31G02G05G06G14G29G12G24G25
   -131367.328 7  25235628.090                        4387.786          37.000
   -472500.417 9  22558505.973                        2489.830          50.000
    149913.381 9  22124415.227                        -845.857          47.000
   -662988.590 9  24057293.352                        3510.501          48.000
    477087.947 8  25071099.026                       -2568.485          39.000
    199997.268 9  25129726.021                       -1138.201          40.000
   -444373.251 9  20735663.094                        2355.265          53.000
    273966.353 9  21713569.177                       -1500.704          49.000
    521663.163 9  25282238.624                       -2801.819          41.000
   -190513.292 9  20352365.975                         974.625          54.000
 17  4 10 16 13 50.0000000  0 10G21G31G02G05G06G14G29G12G24G25
   -135755.041 7  25234793.268                        4387.931          37.000
   -474989.891 9  22558032.238                        2489.504          50.000
    150759.538 9  22124576.245                        -846.099          48.000
   -666498.901 9  24056625.381                        3510.452          47.000
    479656.494 9  25071587.842                       -2568.210          40.000
    201135.720 9  25129942.648                       -1138.551          40.000
   -446728.217 9  20735214.965                        2355.008          53.000
    275467.306 9  21713854.804                       -1500.979          49.000
    524464.892 9  25282771.791                       -2801.528          41.000
   -191487.608 9  20352180.575                         974.304          54.000
 17  4 10 16 13 51.0000000  0 10G21G31G02G05G06G14G29G12G24G25
   -140142.803 7  25233958.436                        4387.825          37.000
   -477478.895 9  22557558.602                        2488.842          50.000
    151606.031 9  22124737.325                        -846.621          48.000
   -670009.002 9  24055957.446                        3509.994          47.000
                  25072081.375                       -2568.319          33.000
    202274.351 9  25130159.309                       -1138.794          40.000
   -449082.920 9  20734766.873                        2354.531          54.000
    276968.482 9  21714140.467                       -1501.391          49.000
    527266.434 9  25283304.913                       -2801.298          41.000
   -192461.538 9  20351995.247                         973.733          54.000
 17  4 10 16 13 52.0000000  0 10G21G31G02G05G06G14G29G12G24G25
   -144530.362 7  25233123.613                        4387.810          37.000
   -479967.208 9  22557085.090                        2488.224          50.000
    152453.071 9  22124898.513                        -847.144          48.000
   -673518.660 9  24055289.609                        3509.586          47.000
                  25072570.951                       -2569.293          37.000
    203413.412 9  25130376.052                       -1139.011          40.000
   -451437.123 9  20734318.887                        2354.128          54.000
    278470.110 9  21714426.229                       -1501.666          49.000
    530068.079 9  25283838.062                       -2801.530          41.000
   -193434.847 9  20351810.034                         973.238          54.000
 17  4 10 16 13 53.0000000  0 10G21G31G02G05G06G14G29G12G24G25
   -148918.036 7  25232288.772                        4387.833          37.000
   -482455.130 9  22556611.651                        2487.789          50.000
    153300.374 9  22125059.745                        -847.397          48.000
   -677028.227 9  24054621.781                        3509.563          46.000
                  25073058.829                       -2568.985          37.000
    204552.598 9  25130592.812                       -1139.253          40.000
   -453791.132 9  20733870.929                        2353.945          54.000
    279971.906 9  21714712.008                       -1501.849          49.000
    532869.460 9  25284371.149                       -2801.251          41.000
   -194407.846 9  20351624.875                         972.919          54.000
 17  4 10 16 13 54.0000000  0 10G21G31G02G05G06G14G29G12G24G25
   -153305.603 7  25231453.922                        4387.528          37.000
   -484942.454 9  22556138.327                        2487.059          50.000
    154148.133 9  22125221.058                        -847.878          48.000
   -680537.453 9  24053954.015                        3509.146          46.000
                  25073546.894                       -2569.103          39.000
    205692.102 9  25130809.644                       -1139.539          40.000
   -456144.744 9  20733423.051                        2353.497          54.000
    281474.071 9  21714997.877                       -1502.263          49.000
    535670.842 9  25284904.244                       -2801.288          41.000
   -195380.310 9  20351439.833                         972.271          54.000
 17  4 10 16 13 55.0000000  0 10G21G31G02G05G06G14G29G12G24G25
   -157693.150 7  25230619.037                        4387.686          37.000
   -487429.221 9  22555665.111                        2486.506          50.000
    154996.320 9  22125382.459                        -848.394          48.000
   -684046.388 9  24053286.313                        3508.813          46.000
    492501.620 8  25074035.317                       -2569.458          39.000
    206831.912 9  25131026.529                       -1139.954          40.000
   -458497.989 9  20732975.244                        2353.086          53.000
    282976.561 9  21715283.808                       -1502.604          49.000
    538472.133 9  25285437.322                       -2801.296          41.000
   -196352.316 9  20351254.861                         971.807          54.000
 17  4 10 16 13 56.0000000  0 10G21G31G02G05G06G14G29G12G24G25
   -162080.773 7  25229784.116                        4387.884          37.000
   -489915.614 9  22555191.975                        2486.301          50.000
    155844.740 9  22125543.906                        -848.404          48.000
   -687555.217 9  24052618.628                        3508.902          47.000
    495070.864 8  25074524.151                       -2569.157          39.000
    207971.808 9  25131243.432                       -1139.786          40.000
   -460851.054 9  20732527.473                        2353.078          53.000
    284479.196 9  21715569.766                       -1502.610          49.000
    541273.160 9  25285970.355                       -2800.693          40.000
   -197323.999 9  20351069.971                         971.687          54.000
 17  4 10 16 13 57.0000000  0 10G21G31G02G05G06G14G29G12G24G25
   -166468.276 7  25228949.213                        4387.690          37.000
   -492401.359 9  22554718.955                        2485.760          50.000
    156693.674 9  22125705.451                        -848.853          48.000
   -691063.659 9  24051951.005                        3508.519          46.000
    497640.335 8  25075013.369                       -2569.256          39.000
    209112.102 9  25131460.416                       -1140.080          41.000
   -463203.664 9  20732079.783                        2352.747          54.000
    285982.242 9  21715855.795                       -1502.851          49.000
    544074.239 9  25286503.397                       -2800.735          40.000
   -198295.123 9  20350885.178                         971.182          54.000
 17  4 10 16 13 58.0000000  0 10G21G31G02G05G06G14G29G12G24G25
   -170855.778 7  25228114.274                        4387.760          37.000
   -494886.608 9  22554246.024                        2485.233          50.000
    157542.964 9  22125867.050                        -849.279          48.000
   -694571.888 9  24051283.427                        3508.254          46.000
    500209.883 8  25075502.194                       -2569.403          39.000
    210252.612 9  25131677.453                       -1140.437          41.000
   -465555.974 9  20731632.146                        2352.374          54.000
    287485.541 9  21716141.878                       -1503.130          49.000
    546875.158 9  25287036.412                       -2800.636          40.000
   -199265.825 9  20350700.457                         970.691          54.000
 17  4 10 16 13 59.0000000  0 10G21G31G02G05G06G14G29G12G24G25
   -175243.109 7  25227279.379                        4387.923          37.000
   -497371.177 9  22553773.228                        2484.720          50.000
    158392.791 9  22126028.764                        -849.559          48.000
   -698079.711 9  24050615.930                        3508.121          46.000
    502779.694 8  25075991.162                       -2569.529          39.000
    211393.534 9  25131894.561                       -1140.635          41.000
   -467907.807 9  20731184.607                        2352.105          54.000
    288989.289 9  21716428.042                       -1503.459          49.000
    549676.124 9  25287569.427                       -2800.522          40.000
   -200235.933 9  20350515.861                         970.322          54.000
 17  4 10 16 14  0.0000000  0 10G21G31G02G05G06G14G29G12G24G25
   -179630.423 7  25226444.503                        4387.129          37.000
   -499855.236 9  22553300.521                        2483.615          50.000
    159242.993 9  22126190.541                        -850.541          48.000
   -701587.278 9  24049948.468                        3507.260          46.000
    505349.603 8  25076479.943                       -2570.259          38.000
    212534.694 9  25132111.724                       -1141.464          40.000
   -470259.313 9  20730737.131                        2351.152          53.000
    290493.312 9  21716714.259                       -1504.349          49.000
    552476.979 9  25288102.424                       -2800.892          40.000
   -201205.592 9  20350331.346                         969.240          54.000
 17  4 10 16 14  1.0000000  0 10G21G31G02G05G06G14G29G12G24G25
   -184017.720 7  25225609.608                        4387.258          37.000
   -502338.774 9  22552827.921                        2483.268          50.000
    160093.585 9  22126352.399                        -850.791          48.000
   -705094.598 9  24049281.060                        3507.186          46.000
    507919.594 8  25076968.535                       -2569.899          38.000
    213676.100 9  25132328.931                       -1141.440          40.000
   -472610.500 9  20730289.709                        2351.060          54.000
    291997.617 9  21717000.530                       -1504.381          49.000
    555277.737 8  25288635.403                       -2800.650          39.000
   -202174.817 9  20350146.911                         968.995          54.000
 17  4 10 16 14  2.0000000  0 10G21G31G02G05G06G14G29G12G24G25
   -188405.004 8  25224774.741                        4387.506          38.000
   -504821.794 9  22552355.419                        2482.996          50.000
    160944.560 9  22126514.319                        -850.923          48.000
   -708601.661 9  24048613.706                        3507.166          46.000
    510489.714 8  25077457.423                       -2569.861          39.000
    214817.767 9  25132546.191                       -1141.497          41.000
   -474961.359 9  20729842.349                        2350.955          53.000
    293502.213 9  21717286.854                       -1504.489          49.000
    558078.378 8  25289168.365                       -2800.333          39.000
   -203143.587 9  20349962.565                         968.814          54.000
 17  4 10 16 14  3.0000000  0 10G21G31G02G05G06G14G29G12G24G25
   -192792.414 8  25223939.829                        4387.645          38.000
   -507304.443 9  22551882.980                        2482.673          50.000
    161795.754 9  22126676.293                        -851.089          48.000
   -712108.633 9  24047946.352                        3507.162          46.000
    513059.779 8  25077946.248                       -2569.771          38.000
    215959.536 9  25132763.469                       -1141.638          40.000
   -477312.046 9  20729395.025                        2350.813          53.000
    295006.944 9  21717573.205                       -1504.592          49.000
    560878.765 8  25289701.264                       -2800.094          39.000
   -204112.066 9  20349778.273                         968.560          54.000
 17  4 10 16 14  4.0000000  0 10G21G31G02G05G06G14G29G12G24G25
   -197179.737 8  25223104.925                        4387.216          38.000
   -509786.491 9  22551410.657                        2481.741          49.000
    162647.418 9  22126838.347                        -851.935          48.000
   -715615.271 9  24047279.069                        3506.391          46.000
    515630.040 8  25078435.171                       -2570.449          39.000
    217101.626 9  25132980.819                       -1142.333          40.000
   -479662.329 9  20728947.772                        2350.036          53.000
    296512.038 9  21717859.619                       -1505.331          49.000
    563679.098 8  25290234.154                       -2800.282          39.000
   -205080.022 9  20349594.079                         967.660          54.000
 17  4 10 16 14  5.0000000  0 10G21G31G02G05G06G14G29G12G24G25
   -201566.883 8  25222270.076                        4387.212          38.000
   -512267.871 9  22550938.468                        2481.132          50.000
    163499.610 9  22127000.508                        -852.350          48.000
   -719121.521 9  24046611.857                        3506.155          46.000
    518200.527 8  25078924.318                       -2570.523          39.000
    218244.116 9  25133198.241                       -1142.576          40.000
   -482012.142 9  20728500.608                        2349.669          53.000
    298017.559 9  21718146.122                       -1505.599          49.000
    566479.513 8  25290767.062                       -2800.324          39.000
   -206047.391 9  20349409.992                         967.211          54.000
 17  4 10 16 14  6.0000000  0 10G21G31G02G05G06G14G29G12G24G25
   -205954.045 8  25221435.253                        4387.139          38.000
   -514748.754 9  22550466.369                        2480.561          49.000
    164352.163 9  22127162.741                        -852.811          47.000
   -722627.540 9  24045944.690                        3505.784          45.000
    520771.105 8  25079413.455                       -2570.658          38.000
    219386.836 9  25133415.707                       -1142.944          40.000
   -484361.653 9  20728053.508                        2349.285          53.000
    299523.349 9  21718432.678                       -1505.968          49.000
    569279.795 8  25291299.943                       -2800.312          38.000
   -207014.336 9  20349225.986                         966.693          54.000
 17  4 10 16 14  7.0000000  0 10G21G31G02G05G06G14G29G12G24G25
   -210341.074 8  25220600.421                        4387.172          38.000
   -517229.015 9  22549994.385                        2480.220          50.000
    165205.199 9  22127325.055                        -853.021          48.000
   -726133.196 9  24045277.586                        3505.735          46.000
    523341.875 8  25079902.665                       -2570.566          39.000
    220529.898 9  25133633.244                       -1143.001          40.000
   -486710.736 9  20727606.487                        2349.157          54.000
    301029.527 9  21718719.306                       -1506.005          49.000
    572080.053 8  25291832.833                       -2800.049          38.000
   -207980.727 9  20349042.087                         966.425          54.000
 17  4 10 16 14  8.0000000  0 10G21G31G02G05G06G14G29G12G24G25
   -214728.073 8  25219765.571                        4387.091          38.000
   -519708.736 9  22549522.509                        2479.476          50.000
    166058.636 9  22127487.448                        -853.578          48.000
   -729638.587 9  24044610.545                        3505.305          46.000
    525912.798 8  25080391.883                       -2570.860          38.000
    221673.238 9  25133850.826                       -1143.390          40.000
   -489059.474 9  20727159.538                        2348.624          54.000
    302536.014 9  21719005.988                       -1506.559          49.000
    574880.208 8  25292365.696                       -2800.058          38.000
   -208946.665 9  20348858.268                         965.767          54.000
 17  4 10 16 14  9.0000000  0 10G21G31G02G05G06G14G29G12G24G25
   -219114.738 8  25218930.793                        4386.575          38.000
   -522187.643 9  22549050.793                        2478.762          50.000
    166912.756 9  22127649.967                        -854.189          48.000
   -733143.433 9  24043943.592                        3504.837          46.000
    528484.109 8  25080881.163                       -2571.366          39.000
    222817.121 9  25134068.507                       -1143.875          40.000
   -491407.594 9  20726712.697                        2348.087          54.000
    304043.077 9  21719292.786                       -1507.077          49.000
    577680.546 8  25292898.595                       -2800.182          38.000
   -209911.861 9  20348674.601                         965.081          54.000
 17  4 10 16 14 10.0000000  0 10G21G31G02G05G06G14G29G12G24G25
   -223501.492 8  25218095.988                        4386.942          38.000
   -524666.113 9  22548579.158                        2478.278          50.000
    167767.178 9  22127812.539                        -854.520          48.000
   -736648.111 9  24043276.676                        3504.756          46.000
    531055.425 8  25081370.471                       -2571.348          39.000
    223961.185 9  25134286.241                       -1144.148          40.000
   -493755.468 9  20726265.917                        2347.785          54.000
    305550.342 9  21719579.619                       -1507.296          49.000
    580480.711 8  25293431.458                       -2799.903          38.000
   -210876.697 9  20348490.997                         964.692          54.000
 17  4 10 16 14 11.0000000  0 10G21G31G02G05G06G14G29G12G24G25
   -227888.231 8  25217261.192                        4386.953          39.000
   -527144.085 9  22548107.613                        2477.875          50.000
    168621.951 9  22127975.183                        -854.778          48.000
   -740152.548 9  24042609.804                        3504.482          46.000
    533626.834 8  25081859.725                       -2571.295          39.000
    225105.469 9  25134504.011                       -1144.262          40.000
   -496103.041 9  20725819.192                        2347.554          54.000
    307057.865 9  21719866.507                       -1507.477          49.000
    583280.777 7  25293964.303                       -2800.021          37.000
   -211841.119 9  20348307.473                         964.375          54.000
 17  4 10 16 14 12.0000000  0 10G21G31G02G05G06G14G29G12G24G25
   -232274.858 8  25216426.423                        4386.522          39.000
   -529621.479 9  22547636.183                        2477.151          50.000
    169477.170 9  22128137.908                        -855.444          48.000
   -743656.677 9  24041942.994                        3504.002          45.000
    536198.391 8  25082349.032                       -2571.667          39.000
    226250.056 9  25134721.852                       -1144.754          40.000
   -498450.234 9  20725372.538                        2347.039          54.000
    308565.745 9  21720153.465                       -1508.071          49.000
    586080.729 7  25294497.131                       -2800.008          37.000
   -212805.022 9  20348124.039                         963.694          54.000
 17  4 10 16 14 13.0000000  0 10G21G31G02G05G06G14G29G12G24G25
   -236661.457 8  25215591.635                        4386.885          39.000
   -532098.317 9  22547164.852                        2476.905          50.000
    170332.807 9  22128300.712                        -855.542          48.000
   -747160.517 9  24041276.238                        3504.006          46.000
    538770.089 8  25082838.420                       -2571.420          39.000
    227394.924 9  25134939.747                       -1144.648          41.000
   -500797.071 9  20724925.946                        2346.999          54.000
    310073.927 9  21720440.477                       -1508.021          49.000
    588880.620 7  25295029.949                       -2799.399          37.000
   -213768.456 9  20347940.703                         963.531          54.000
 17  4 10 16 14 14.0000000  0 10G21G31G02G05G06G14G29G12G24G25
   -241047.997 8  25214756.866                        4386.557          39.000
   -534574.597 9  22546693.637                        2476.005          50.000
    171188.852 9  22128463.588                        -856.211          48.000
   -750664.074 9  24040609.536                        3503.366          46.000
    541341.926 8  25083327.790                       -2571.986          39.000
    228540.077 9  25135157.713                       -1145.282          41.000
   -503143.547 9  20724479.426                        2346.332          54.000
    311582.431 9  21720727.543                       -1508.609          49.000
    591680.433 7  25295562.759                       -2799.771          37.000
   -214731.424 9  20347757.447                         962.782          54.000
 17  4 10 16 14 15.0000000  0 10G21G31G02G05G06G14G29G12G24G25
   -245434.504 8  25213922.124                        4386.374          39.000
   -537050.349 9  22546222.511                        2475.426          49.000
    172045.299 9  22128626.554                        -856.712          48.000
   -754167.376 9  24039942.879                        3503.122          45.000
    543913.866 8  25083817.160                       -2572.079          39.000
    229685.490 9  25135375.724                       -1145.683          41.000
   -505489.687 9  20724032.977                        2345.895          54.000
    313091.243 9  21721014.681                       -1509.106          49.000
    594480.149 7  25296095.542                       -2799.789          37.000
   -215693.916 9  20347574.289                         962.187          54.000
 17  4 10 16 14 16.0000000  0 10G21G31G02G05G06G14G29G12G24G25
   -249820.862 8  25213087.390                        4386.314          39.000
   -539525.439 9  22545751.511                        2474.791          50.000
    172902.260 9  22128789.609                        -857.151          48.000
   -757670.275 9  24039276.302                        3502.803          46.000
    546486.052 8  25084306.592                       -2572.276          39.000
    230831.288 9  25135593.806                       -1145.944          41.000
   -507835.371 9  20723586.609                        2345.495          54.000
    314600.461 9  21721301.889                       -1509.407          49.000
    597279.888 8  25296628.334                       -2799.734          38.000
   -216655.845 9  20347391.239                         961.702          54.000
 17  4 10 16 14 17.0000000  0 10G21G31G02G05G06G14G29G12G24G25
   -254207.096 8  25212252.657                        4386.379          39.000
   -541999.914 9  22545280.635                        2474.399          49.000
    173759.706 9  22128952.762                        -857.451          48.000
   -761172.824 9  24038609.787                        3502.635          46.000
    549058.435 8  25084796.061                       -2572.303          39.000
    231977.441 9  25135811.960                       -1146.139          40.000
   -510180.630 9  20723140.330                        2345.259          54.000
    316110.073 9  21721589.179                       -1509.638          49.000
    600079.649 8  25297161.134                       -2799.566          38.000
   -217617.213 9  20347208.296                         961.344          54.000
 17  4 10 16 14 18.0000000  0 10G21G31G02G05G06G14G29G12G24G25
   -258593.353 8  25211417.923                        4386.485          39.000
   -544473.902 9  22544809.840                        2474.017          49.000
    174617.493 9  22129115.977                        -857.694          48.000
   -764675.157 9  24037943.317                        3502.540          45.000
    551630.898 8  25085285.565                       -2572.172          38.000
    233123.803 9  25136030.150                       -1146.247          40.000
   -512525.603 9  20722694.096                        2345.108          53.000
    317619.927 9  21721876.504                       -1509.772          49.000
    602879.262 7  25297693.908                       -2799.246          37.000
   -218578.179 9  20347025.425                         961.016          54.000
 17  4 10 16 14 19.0000000  0 10G21G31G02G05G06G14G29G12G24G25
   -262979.532 8  25210583.234                        4386.159          39.000
   -546947.303 9  22544339.170                        2473.261          49.000
    175475.723 9  22129279.273                        -858.337          47.000
   -768177.174 9  24037276.910                        3501.979          46.000
    554203.537 8  25085775.087                       -2572.716          39.000
    234270.478 9  25136248.393                       -1146.740          40.000
   -514870.182 9  20722247.942                        2344.513          53.000
    319130.134 9  21722163.900                       -1510.244          49.000
    605678.825 7  25298226.673                       -2799.306          37.000
   -219538.638 9  20346842.651                         960.308          54.000
 17  4 10 16 14 20.0000000  0 10G21G31G02G05G06G14G29G12G24G25
   -267365.818 9  25209748.492                        4386.310          40.000
   -549420.318 9  22543868.562                        2472.861          49.000
    176334.199 9  22129442.623                        -858.549          48.000
   -771679.067 9  24036610.529                        3501.809          45.000
    556776.117 8  25086264.591                       -2572.583          38.000
    235417.265 9  25136466.646                       -1146.755          40.000
   -517214.569 9  20721801.824                        2344.295          54.000
    320640.489 9  21722451.332                       -1510.448          49.000
    608478.140 8  25298759.384                       -2799.110          38.000
   -220498.774 9  20346659.941                         960.029          54.000
 17  4 10 16 14 21.0000000  0 10G21G31G02G05G06G14G29G12G24G25
   -271752.088 9  25208913.758                        4386.128          40.000
   -551892.798 9  22543398.062                        2472.044          49.000
    177193.072 9  22129606.044                        -859.181          48.000
   -775180.713 9  24035944.185                        3501.374          45.000
    559348.824 8  25086754.104                       -2572.969          38.000
    236564.313 9  25136684.961                       -1147.292          40.000
   -519558.622 9  20721355.769                        2343.715          54.000
    322151.137 9  21722738.809                       -1510.945          49.000
    611277.361 8  25299292.087                       -2799.354          38.000
   -221458.463 9  20346477.319                         959.287          54.000
 17  4 10 16 14 22.0000000  0 10G21G31G02G05G06G14G29G12G24G25
   -276138.070 9  25208079.069                        4385.829          40.000
   -554364.503 9  22542927.705                        2471.267          49.000
    178052.582 9  22129769.591                        -859.856          48.000
   -778681.841 9  24035277.947                        3500.814          46.000
    561921.887 8  25087243.670                       -2573.261          38.000
    237711.862 9  25136903.356                       -1147.802          40.000
   -521902.094 9  20720909.830                        2343.157          54.000
    323662.332 9  21723026.393                       -1511.474          49.000
    614076.722 8  25299824.807                       -2799.432          38.000
   -222417.454 9  20346294.832                         958.632          54.000
 17  4 10 16 14 23.0000000  0 10G21G31G02G05G06G14G29G12G24G25
   -280523.805 9  25207244.443                        4385.633          40.000
   -556835.452 9  22542457.499                        2470.601          49.000
    178912.704 9  22129933.253                        -860.451          48.000
   -782182.496 9  24034611.790                        3500.444          46.000
    564495.283 8  25087733.308                       -2573.524          38.000
    238859.902 9  25137121.840                       -1148.302          40.000
   -524245.004 9  20720463.989                        2342.618          54.000
    325174.051 9  21723314.075                       -1511.992          49.000
    616876.228 8  25300357.545                       -2799.571          38.000
   -223375.752 9  20346112.478                         957.925          54.000
 17  4 10 16 14 24.0000000  0 10G21G31G02G05G06G14G29G12G24G25
   -284909.367 9  25206409.843                        4385.692          40.000
   -559305.727 9  22541987.410                        2470.044          49.000
    179773.356 9  22130097.014                        -860.787          48.000
   -785682.738 9  24033945.722                        3500.208          45.000
    567068.937 8  25088222.982                       -2573.711          38.000
    240008.330 9  25137340.396                       -1148.462          40.000
   -526587.442 9  20720018.246                        2342.355          54.000
    326686.199 9  21723601.847                       -1512.266          49.000
    619675.763 8  25300890.292                       -2799.413          38.000
   -224333.465 9  20345930.232                         957.498          54.000
 17  4 10 16 14 25.0000000  0 10G21G31G02G05G06G14G29G12G24G25
   -289295.087 9  25205575.217                        4385.908          40.000
   -561775.653 9  22541517.392                        2469.806          50.000
    180634.215 9  22130260.810                        -860.924          48.000
   -789182.887 9  24033279.672                        3500.120          46.000
    569642.490 8  25088712.656                       -2573.426          38.000
    241156.840 9  25137558.961                       -1148.521          40.000
   -528929.726 9  20719572.530                        2342.274          54.000
    328198.456 9  21723889.628                       -1512.217          49.000
    622475.013 8  25301422.977                       -2798.998          38.000
   -225290.911 9  20345748.040                         957.377          54.000
 17  4 10 16 14 26.0000000  0 10G21G31G02G05G06G14G29G12G24G25
   -293680.854 9  25204740.582                        4385.849          40.000
   -564245.127 9  22541047.472                        2469.353          50.000
    181495.392 9  22130424.678                        -861.193          48.000
   -792682.851 9  24032613.649                        3499.954          46.000
    572216.111 8  25089202.329                       -2573.430          38.000
    242305.537 9  25137777.571                       -1148.690          40.000
   -531271.746 9  20719126.859                        2342.023          54.000
    329710.941 9  21724177.453                       -1512.522          49.000
    625274.101 8  25301955.634                       -2798.752          39.000
   -226247.972 9  20345565.919                         956.996          54.000
 17  4 10 16 14 27.0000000  0 10G21G31G02G05G06G14G29G12G24G25
   -298066.528 9  25203905.964                        4385.772          40.000
   -566714.008 9  22540577.651                        2468.733          49.000
    182357.025 9  22130588.635                        -861.764          48.000
   -796182.492 9  24031947.697                        3499.610          45.000
    574789.895 8  25089692.021                       -2573.700          38.000
    243454.539 9  25137996.216                       -1149.047          40.000
   -533613.366 9  20718681.268                        2341.586          54.000
    331223.768 9  21724465.332                       -1512.817          49.000
    628073.161 8  25302488.274                       -2798.939          39.000
   -227204.519 9  20345383.896                         956.488          54.000
 17  4 10 16 14 28.0000000  0 10G21G31G02G05G06G14G29G12G24G25
   -302452.247 9  25203071.338                        4385.874          41.000
   -569182.423 9  22540107.928                        2468.159          49.000
    183218.978 9  22130752.646                        -862.175          48.000
   -799681.933 9  24031281.781                        3499.292          46.000
    577363.721 8  25090181.748                       -2573.819          38.000
    244603.731 9  25138214.906                       -1149.323          40.000
   -535954.717 9  20718235.730                        2341.181          54.000
    332736.840 9  21724753.273                       -1513.253          49.000
    630872.034 8  25303020.887                       -2798.762          39.000
   -228160.673 9  20345201.953                         955.888          54.000
 17  4 10 16 14 29.0000000  0 10G21G31G02G05G06G14G29G12G24G25
   -306837.890 9  25202236.739                        4385.736          40.000
   -571650.273 9  22539638.303                        2467.692          49.000
    184081.351 9  22130916.746                        -862.480          48.000
   -803181.076 9  24030615.928                        3499.115          45.000
    579937.718 8  25090671.485                       -2574.022          38.000
    245753.226 9  25138433.659                       -1149.521          40.000
   -538295.708 9  20717790.265                        2340.951          54.000
    334250.218 9  21725041.268                       -1513.351          49.000
    633670.818 8  25303553.491                       -2798.496          39.000
   -229116.358 9  20345020.100                         955.602          54.000
 17  4 10 16 14 30.0000000  0 10G21G31G02G05G06G14G29G12G24G25
   -311223.426 9  25201402.139                        4385.391          41.000
   -574117.510 9  22539168.804                        2466.787          49.000
    184944.201 9  22131080.936                        -863.215          48.000
   -806679.868 9  24029950.137                        3498.477          45.000
